,Address,Sell_price,Date_of_sale,Type,sqm_price,Rooms,m2,Building_year,location,latitude,longitude,m_distance,m_station,s_distance,s_station,m_distance_const,m_station_const,s_distance_const,s_station_const,c_distance,z_sqm_price
0," Pileskellet 8, 2000 Frederiksberg",1009430,1995-01-02, Ejerlejlighed ,6349,5,159,1979,"Pileskellet, Frederiksberg Kommune, Region Hovedstaden, 2500, Danmark",55.67100210000001,12.4974767,,,0.59524,Langgade,1.656,Flintholm,0.289,Ålholm,4.891,
1," Matthæusgade 46B, 5. 548, 1666 København V",168000,1995-01-02, Ejerlejlighed ,3231,1,52,1970,"46B, Matthæusgade, Sorte Hest, Vesterbro, København, Københavns Kommune, Region Hovedstaden, 1666, Danmark",55.669807999999996,12.547394,,,0.91072,Dybbølsbro,1.372,Forum,0.969,Carlsberg,2.363,
2," Platanvej 6, 9. 2, 1810 Frederiksberg C",471425,1995-01-02, Ejerlejlighed ,6548,2,72,1972,"6, Platanvej, Sorte Hest, København, Københavns Kommune, Region Hovedstaden, 1810, Danmark",55.672851,12.539769,,,1.48339,Vesterport,1.043,Frederiksberg,1.024,Carlsberg,2.454,
3," Vestergade 13, 2, 1456 København K",830000,1995-01-03, Villa ,5887,5,141,1905,"13, Vestergade, Kødbyen, Vesterbro, København, Københavns Kommune, Region Hovedstaden, 1456, Danmark",55.677675,12.570428999999999,,,0.51897,Vesterport,0.635,Nørreport,2.649,Carlsberg,1.008,
4," Livjægergade 32, st. th, 2100 København Ø",451280,1995-01-04, Ejerlejlighed ,5712,3,79,1896,"32, Livjægergade, Indre Østerbro, Østerbro, København, Københavns Kommune, Region Hovedstaden, 2100, Danmark",55.699109,12.586491,,,0.73908,Nordhavn,1.988,Nørreport,2.932,Bispebjerg,1.723,
5," Englandsvej 47, 1. tv, 2300 København S",384781,1995-01-05, Ejerlejlighed ,5743,3,67,1935,"47, Englandsvej, Christianshavn, København, Københavns Kommune, Region Hovedstaden, 2300, Danmark",55.653413,12.602779,,,3.03055,Dybbølsbro,0.905,DR Byen,4.355,Carlsberg,4.241,
6," Erantisvej 20, 2300 København S",810400,1995-01-06, Villa ,8024,4,101,1923,"20, Erantisvej, København, Københavns Kommune, Region Hovedstaden, 2300, Danmark",55.644016,12.609832,,,3.95776,Dybbølsbro,1.522,Sundby,5.141,Carlsberg,5.373,
7," Jyllandsvej 13, 2000 Frederiksberg",1522785,1995-01-06, Villa ,10877,3,140,1890,"13, Jyllandsvej, Frederiksberg, Frederiksberg Kommune, Region Hovedstaden, 2000, Danmark",55.677539,12.511477000000001,,,0.49818,Peter Bangs Vej,0.669,Lindevang,1.194,Flintholm,3.825,
8," Betty Nansens Alle 21, 3. tv, 2000 Frederiksberg",1100000,1995-01-06, Ejerlejlighed ,8527,4,129,1976,"Betty Nansens Alle, Frederiksberg Kommune, Region Hovedstaden, 2500, Danmark",55.6702991,12.4979738,,,0.51885,Langgade,1.732,Flintholm,0.352,Ålholm,4.89,
9," Livjægergade 32, 1. tv, 2100 København Ø",465000,1995-01-11, Ejerlejlighed ,5741,4,81,1896,"32, Livjægergade, Indre Østerbro, Østerbro, København, Københavns Kommune, Region Hovedstaden, 2100, Danmark",55.699109,12.586491,,,0.73908,Nordhavn,1.988,Nørreport,2.932,Bispebjerg,1.723,
10," Bianco Lunos Alle 4B, 2. th, 1868 Frederiksberg C",464040,1995-01-12, Ejerlejlighed ,7139,2,65,1962,"4B, Bianco Lunos Alle, Frederiksberg, Frederiksberg Kommune, Region Hovedstaden, 1868, Danmark",55.677385,12.540643,,,1.37954,Vesterport,0.679,Frederiksberg,1.529,Carlsberg,2.123,
11," Åboulevard 34E, 1. tv, 2200 København N",269000,1995-01-12, Ejerlejlighed ,6256,2,43,1885,"34E, Åboulevard, Kødbyen, Nørrebro, København, Københavns Kommune, Region Hovedstaden, 2200, Danmark",55.68504300000001,12.555086,,,1.06016,Nørreport,0.394,Forum,2.522,Bispebjerg,0.961,
12," Ribegade 12, st. tv, 2100 København Ø",650680,1995-01-12, Ejerlejlighed ,5333,4,122,1904,"12, Ribegade, Indre Østerbro, Østerbro, København, Københavns Kommune, Region Hovedstaden, 2100, Danmark",55.703161,12.580165,,,0.7109,Nordhavn,2.271,Nørreport,2.447,Bispebjerg,1.937,
13," Wibrandtsvej 19, 2300 København S",670876,1995-01-13, Villa ,7711,2,87,1934,"19, Wibrandtsvej, København, Københavns Kommune, Region Hovedstaden, 2300, Danmark",55.646638,12.618319,,,4.24741,Dybbølsbro,1.269,Femøren,5.52,Carlsberg,5.398,
14," Jansvej 54, 2300 København S",555640,1995-01-16, Villa ,6106,5,91,1926,"54, Jansvej, København, Københavns Kommune, Region Hovedstaden, 2300, Danmark",55.64221,12.619066,,,4.54775,Dybbølsbro,1.26,Femøren,5.753,Carlsberg,5.837,
15," Gladiolusvej 25, 2300 København S",740000,1995-01-16, Villa ,7551,3,98,1976,"25, Gladiolusvej, København, Københavns Kommune, Region Hovedstaden, 2300, Danmark",55.643365,12.609421000000001,,,3.98108,Dybbølsbro,1.505,Sundby,5.15,Carlsberg,5.425,
16," Christianshavns Voldgade 43, 4. tv, 1424 København K",458280,1995-01-16, Ejerlejlighed ,3498,4,131,1850,"43, Christianshavns Voldgade, Christianshavn, København, Københavns Kommune, Region Hovedstaden, 1424, Danmark",55.670898,12.593492999999999,,,1.94996,Nørreport,0.992,Islands Brygge,3.694,Carlsberg,2.297,
17," Hindustanvej 25, 2300 København S",608600,1995-01-17, Villa ,6916,3,88,1938,"25, Hindustanvej, København, Københavns Kommune, Region Hovedstaden, 2300, Danmark",55.648888,12.629581,,,4.77694,Dybbølsbro,0.682,Femøren,6.116,Carlsberg,5.636,
18," Prins Buris Vej 6, 2300 København S",850000,1995-01-17, Villa ,5944,4,143,1929,"6, Prins Buris Vej, København, Københavns Kommune, Region Hovedstaden, 2300, Danmark",55.657175,12.630171,,,4.54184,Dybbølsbro,0.151,Amager Strand,5.967,Carlsberg,5.012,
19," Lærkeskellet 14, 2000 Frederiksberg",851840,1995-01-17, Ejerlejlighed ,6085,4,140,1978,"Lærkeskellet, Frederiksberg Kommune, Region Hovedstaden, 2500, Danmark",55.6718681,12.4966861,,,0.69937,Langgade,1.564,Flintholm,0.22,Ålholm,4.904,
20," Helgesensgade 1, 2. tv, 2100 København Ø",430000,1995-01-18, Ejerlejlighed ,3613,6,119,1895,"1, Helgesensgade, Indre Østerbro, Østerbro, København, Københavns Kommune, Region Hovedstaden, 2100, Danmark",55.69474399999999,12.572511,,,0.98352,Østerport,1.272,Nørreport,2.333,Bispebjerg,0.906,
21," Maltagade 24, 4. th, 2300 København S",189000,1995-01-19, Ejerlejlighed ,3500,2,54,1934,"24, Maltagade, Christianshavn, København, Københavns Kommune, Region Hovedstaden, 2300, Danmark",55.653020999999995,12.616686999999999,,,3.85266,Dybbølsbro,1.004,Amager Strand,5.214,Carlsberg,4.763,
22," Helgesvej 19, 1. th, 2000 Frederiksberg",358000,1995-01-20, Ejerlejlighed ,3978,3,90,1893,"19, Helgesvej, Frederiksberg, Frederiksberg Kommune, Region Hovedstaden, 2000, Danmark",55.684111,12.533983000000001,,,1.32568,Fuglebakken,0.343,Frederiksberg,2.181,Flintholm,2.289,
23," Havnegade 33, 5. th, 1058 København K",979120,1995-01-20, Ejerlejlighed ,6661,3,147,1870,"33, Havnegade, Christianshavn, København, Københavns Kommune, Region Hovedstaden, 1058, Danmark",55.676883,12.589356,,,1.3244,Nørreport,0.379,Kongens Nytorv,3.649,Carlsberg,1.635,
24," Sankelmarksgade 13, 5. tv, 1676 København V",464500,1995-01-23, Ejerlejlighed ,6112,3,76,1901,"13, Sankelmarksgade, Sorte Hest, Frederiks Brygge, København, Københavns Kommune, Region Hovedstaden, 1676, Danmark",55.66611500000001,12.548663000000001,,,0.68485,Dybbølsbro,1.76,Forum,0.828,Carlsberg,2.661,
25," Jerichausgade 15, 1777 København V",820000,1995-01-23, Rækkehus ,5985,6,137,1893,"15, Jerichausgade, Carlsberg Byen, København, Københavns Kommune, Region Hovedstaden, 1777, Danmark",55.66798100000001,12.537652,,,1.40401,Dybbølsbro,1.51,Frederiksberg,0.466,Carlsberg,2.918,
26," Forchhammersvej 33, 2. tv, 1920 Frederiksberg C",555080,1995-01-24, Ejerlejlighed ,6168,4,90,1893,"33, Forchhammersvej, Frederiksberg, Frederiksberg Kommune, Region Hovedstaden, 1920, Danmark",55.680438,12.548945,,,0.96457,Vesterport,0.282,Forum,2.012,Carlsberg,1.502,
27," C.F. Richs Vej 85, 3. tv, 2000 Frederiksberg",452000,1995-01-25, Ejerlejlighed ,7533,2,60,1936,"C.F. Richs Vej, Frederiksberg, Frederiksberg Kommune, Region Hovedstaden, 2000, Danmark",55.68749739999999,12.5098524,,,0.49456,Grøndal,0.493,Lindevang,0.68,Flintholm,3.789,
28," Esromgade 12, 2. th, 2200 København N",961654,1995-01-25, Ejerlejlighed ,11727,3,82,1903,"12, Esromgade, Nørrebro, København, Københavns Kommune, Region Hovedstaden, 2200, Danmark",55.69864200000001,12.540144,,,0.25985,Nørrebro,2.005,Frederiksberg,0.868,Bispebjerg,2.303,
29," Valdemarsgade 44, 4. th, 1665 København V",215500,1995-01-26, Ejerlejlighed ,3716,3,58,1895,"44, Valdemarsgade, Sorte Hest, Vesterbro, København, Københavns Kommune, Region Hovedstaden, 1665, Danmark",55.66725400000001,12.549014,,,0.69228,Dybbølsbro,1.631,Forum,0.894,Carlsberg,2.541,-40.75601447619452
30," Küchlersgade 20, 1774 København V",365000,1995-01-27, Rækkehus ,1984,9,184,1887,"20, Küchlersgade, Carlsberg Byen, Frederiks Brygge, København, Københavns Kommune, Region Hovedstaden, 1774, Danmark",55.667671,12.537212,,,1.41118,Sydhavn,1.538,Frederiksberg,0.427,Carlsberg,2.962,-67.61803205553682
31," C.F. Richs Vej 116, st. tv, 2000 Frederiksberg",375000,1995-01-27, Ejerlejlighed ,5769,3,65,1937,"C.F. Richs Vej, Frederiksberg, Frederiksberg Kommune, Region Hovedstaden, 2000, Danmark",55.68749739999999,12.5098524,,,0.49456,Grøndal,0.493,Lindevang,0.68,Flintholm,3.789,-7.123384707852138
32," Gerbrandsvej 4, st. 2, 2300 København S",230000,1995-01-27, Ejerlejlighed ,4600,2,50,1939,"4, Gerbrandsvej, København, Københavns Kommune, Region Hovedstaden, 2300, Danmark",55.646772,12.614993,,,4.05843,Dybbølsbro,1.477,Amager Strand,5.319,Carlsberg,5.27,-25.161066400572686
33," Classensgade 19, 5. th, 2100 København Ø",1050000,1995-01-28, Ejerlejlighed ,6000,5,175,1909,"19, Classensgade, Marmormolen, Østerbro, København, Københavns Kommune, Region Hovedstaden, 2100, Danmark",55.69716800000001,12.583188,,,0.61379,Østerport,1.702,Nørreport,2.805,Bispebjerg,1.426,-2.44378323008634
34," Fiskedamsgade 27, 3. tv, 2100 København Ø",614126,1995-01-29, Ejerlejlighed ,7059,3,87,1900,"27, Fiskedamsgade, Indre Østerbro, Østerbro, København, Københavns Kommune, Region Hovedstaden, 2100, Danmark",55.700301,12.586813000000001,,,0.60902,Nordhavn,2.116,Nørreport,2.918,Bispebjerg,1.842,13.943052685950416
35," Stockholmsgade 43, 2. th, 2100 København Ø",1680000,1995-01-30, Ejerlejlighed ,7119,7,236,1896,"43, Stockholmsgade, Indre Østerbro, Frederiksstaden, København, Københavns Kommune, Region Hovedstaden, 2100, Danmark",55.69171899999999,12.580866,,,0.42094,Østerport,1.098,Nørreport,2.957,Bispebjerg,0.878,14.067039822252609
36," Amaliegade 4B, 2, 1256 København K",550925,1995-01-30, Ejerlejlighed ,2611,4,211,1828,"4B, Amaliegade, Frederiksstaden, København, Københavns Kommune, Region Hovedstaden, 1256, Danmark",55.681764,12.592259,,,1.20224,Østerport,0.522,Kongens Nytorv,4.055,Carlsberg,1.501,-56.9186938658776
37," Trondhjemsgade 12, 3. th, 2100 København Ø",1082000,1995-02-01, Ejerlejlighed ,6848,5,158,1932,"12, Trondhjemsgade, Marmormolen, Frederiksstaden, København, Københavns Kommune, Region Hovedstaden, 2100, Danmark",55.694935,12.589321,,,0.32301,Østerport,1.703,Nørreport,3.256,Bispebjerg,1.517,15.55205579616402
38," Venedigvej 2, 4. tv, 2300 København S",157094,1995-02-02, Ejerlejlighed ,1939,3,81,1932,"2, Venedigvej, Christianshavn, København, Københavns Kommune, Region Hovedstaden, 2300, Danmark",55.661246,12.622005999999999,,,3.96277,Dybbølsbro,0.337,Lergravsparken,5.414,Carlsberg,4.327,-66.02259319400474
39," Rosenørns Alle 68, 5, 1970 Frederiksberg C",730000,1995-02-02, Ejerlejlighed ,5794,5,126,1906,"68, Rosenørns Alle, Frederiksberg, Frederiksberg Kommune, Region Hovedstaden, 1970, Danmark",55.683525,12.546558000000001,,,1.27945,Vesterport,0.438,Forum,2.283,Carlsberg,1.521,1.4977664885696766
40," Løgstørgade 34, 4. th, 2100 København Ø",426890,1995-02-03, Ejerlejlighed ,6187,2,69,1916,"34, Løgstørgade, Indre Østerbro, Østerbro, København, Københavns Kommune, Region Hovedstaden, 2100, Danmark",55.70781899999999,12.583827000000001,,,0.52349,Nordhavn,2.831,Nørreport,2.655,Bispebjerg,2.503,8.988097684714894
41," Ved Volden 8, 2. th, 1425 København K",388795,1995-02-03, Ejerlejlighed ,4272,3,91,1938,"8, Ved Volden, Christianshavn, København, Københavns Kommune, Region Hovedstaden, 1425, Danmark",55.672019999999996,12.594053,,,1.88944,Nørreport,0.988,Kongens Nytorv,3.757,Carlsberg,2.226,-23.85886322993839
42," Nygårdsvej 57, st. tv, 2100 København Ø",444000,1995-02-03, Ejerlejlighed ,6343,3,70,1964,"57, Nygårdsvej, Indre Østerbro, Østerbro, København, Københavns Kommune, Region Hovedstaden, 2100, Danmark",55.7108,12.567503,,,0.72077,Ryparken,3.069,Nørreport,1.697,Bispebjerg,2.685,12.37886008893928
43," Holsteinsgade 19, st. th, 2100 København Ø",672829,1995-02-05, Ejerlejlighed ,6230,4,108,1902,"19, Holsteinsgade, Indre Østerbro, Østerbro, København, Københavns Kommune, Region Hovedstaden, 2100, Danmark",55.69899300000001,12.58421,,,0.78171,Østerport,1.914,Nørreport,2.799,Bispebjerg,1.63,11.350745912968875
44," Sprogøvej 19, 4. th, 2000 Frederiksberg",600747,1995-02-05, Ejerlejlighed ,6530,3,92,1982,"19, Sprogøvej, Frederiksberg, Frederiksberg Kommune, Region Hovedstaden, 2000, Danmark",55.682589,12.5276,,,1.16645,Grøndal,0.287,Fasanvej,1.807,Flintholm,2.711,16.418655510126463
45," Horsensgade 6, 1. th, 2100 København Ø",295160,1995-02-06, Ejerlejlighed ,4685,2,63,1908,"6, Horsensgade, Indre Østerbro, Østerbro, København, Københavns Kommune, Region Hovedstaden, 2100, Danmark",55.704556999999994,12.585662,,,0.33487,Nordhavn,2.522,Nørreport,2.773,Bispebjerg,2.214,-15.027266241853384
46," Steenstrups Alle 5, 2. tv, 1924 Frederiksberg C",700000,1995-02-06, Ejerlejlighed ,7292,3,96,1898,"5, Steenstrups Alle, Frederiksberg, Frederiksberg Kommune, Region Hovedstaden, 1924, Danmark",55.680626000000004,12.550889,,,0.86953,Vesterport,0.173,Forum,2.083,Carlsberg,1.385,29.29078014184397
47," Store Søndervoldstræde 2, 2, 1419 København K",5651367,1995-02-06, Ejerlejlighed ,19157,7,295,1755,"2, Store Søndervoldstræde, Christianshavn, København, Københavns Kommune, Region Hovedstaden, 1419, Danmark",55.67055,12.588382000000001,,,1.7534,Vesterport,0.829,Islands Brygge,3.372,Carlsberg,2.138,216.7475928814325
48," Kålagervej 6, 2300 København S",1330000,1995-02-06, Villa ,9433,5,141,1986,"6, Kålagervej, København, Københavns Kommune, Region Hovedstaden, 2300, Danmark",55.63889399999999,12.598587,,,3.83411,Dybbølsbro,0.989,Bella Center,4.818,Carlsberg,5.619,53.02546909641487
49," Rosenørns Alle 65, st. th, 1970 Frederiksberg C",555000,1995-02-07, Ejerlejlighed ,6768,3,82,1899,"65, Rosenørns Alle, Frederiksberg, Frederiksberg Kommune, Region Hovedstaden, 1970, Danmark",55.683329,12.546358,,,1.276,Vesterport,0.44,Forum,2.258,Carlsberg,1.539,9.388889786814495
50," Yrsavej 9, 3. tv, 2000 Frederiksberg",342800,1995-02-07, Ejerlejlighed ,5713,2,60,1885,"9, Yrsavej, Frederiksberg, Frederiksberg Kommune, Region Hovedstaden, 2000, Danmark",55.683339000000004,12.531614,,,1.29061,Grøndal,0.242,Frederiksberg,2.042,Flintholm,2.448,-8.695721660194025
51," Svinget 24, 2. tv, 2300 København S",403760,1995-02-08, Ejerlejlighed ,4588,3,88,1914,"24, Svinget, Christianshavn, København, Københavns Kommune, Region Hovedstaden, 2300, Danmark",55.66490200000001,12.595322999999999,,,2.25827,Dybbølsbro,0.509,Amagerbro,3.728,Carlsberg,2.903,-27.09784376142076
52," Platanvej 18, 1. 10, 1810 Frederiksberg C",304373,1995-02-08, Ejerlejlighed ,3758,3,81,1978,"18, Platanvej, Sorte Hest, København, Københavns Kommune, Region Hovedstaden, 1810, Danmark",55.671811,12.539568,,,1.44687,Dybbølsbro,1.142,Frederiksberg,0.908,Carlsberg,2.538,-40.21667082049623
53," Vesterbrogade 114, 1. 3, 1620 København V",314080,1995-02-09, Ejerlejlighed ,3610,4,87,1853,"114, Vesterbrogade, Sorte Hest, Vesterbro, København, Københavns Kommune, Region Hovedstaden, 1620, Danmark",55.671412,12.544466,,,1.16396,Dybbølsbro,1.264,Forum,0.989,Carlsberg,2.345,-41.62669110116962
54," Nansensgade 96, 2. th, 1366 København K",539137,1995-02-09, Ejerlejlighed ,7002,3,77,1878,"96, Nansensgade, Kødbyen, Vesterbro, København, Københavns Kommune, Region Hovedstaden, 1366, Danmark",55.685825,12.568057000000001,,,0.35848,Nørreport,0.358,Nørreport,2.828,Bispebjerg,0.162,12.68104280656582
55," Hammerensgade 3, 5. mf, 1267 København K",923860,1995-02-10, Ejerlejlighed ,6200,4,149,1925,"3, Hammerensgade, Frederiksstaden, København, Københavns Kommune, Region Hovedstaden, 1267, Danmark",55.688514,12.590586,,,0.4562,Østerport,1.077,Kongens Nytorv,3.664,Bispebjerg,1.306,-0.34023629008492995
56," Vesterbrogade 186, 2. tv, 1800 Frederiksberg C",647915,1995-02-11, Ejerlejlighed ,4984,5,130,1897,"186, Vesterbrogade, Frederiksberg, Frederiksberg Kommune, Region Hovedstaden, 1800, Danmark",55.670669999999994,12.534952,,,1.49512,Valby,1.184,Frederiksberg,0.758,Carlsberg,2.842,-19.374929226588154
57," Drosselvej 4, 2000 Frederiksberg",1490000,1995-02-13, Rækkehus ,9313,7,160,1929,"4, Drosselvej, Frederiksberg, Frederiksberg Kommune, Region Hovedstaden, 2000, Danmark",55.689201000000004,12.523642,,,0.53046,Grøndal,0.839,Fasanvej,1.567,Flintholm,2.933,49.222083949773264
58," Mariendalsvej 74, 1. th, 2000 Frederiksberg",610000,1995-02-15, Ejerlejlighed ,6162,3,99,1930,"74, Mariendalsvej, Frederiksberg, Frederiksberg Kommune, Region Hovedstaden, 2000, Danmark",55.69211899999999,12.52871,,,0.37443,Fuglebakken,1.212,Fasanvej,1.785,Bispebjerg,2.67,1.7581715896205052
59," Reventlowsgade 26, 2. tv, 1651 København V",581000,1995-02-15, Ejerlejlighed ,4575,4,127,1888,"26, Reventlowsgade, Kødbyen, Vesterbro, København, Københavns Kommune, Region Hovedstaden, 1651, Danmark",55.671186,12.564532,,,0.59321,Vesterport,1.389,Forum,1.964,Carlsberg,1.765,-24.804821257362008
60," Nyelandsvej 73, 4. 1, 2000 Frederiksberg",416510,1995-02-16, Ejerlejlighed ,6508,1,64,1957,"73, Nyelandsvej, Frederiksberg, Frederiksberg Kommune, Region Hovedstaden, 2000, Danmark",55.68464399999999,12.522309,,,0.78333,Grøndal,0.338,Fasanvej,1.444,Flintholm,3.013,4.379066447829186
61," Sankt Pauls Gade 3, 4. tv, 1313 København K",565000,1995-02-17, Ejerlejlighed ,9113,2,62,1875,"3, Sankt Pauls Gade, Frederiksstaden, København, Københavns Kommune, Region Hovedstaden, 1313, Danmark",55.68681700000001,12.589267,,,0.61197,Østerport,0.872,Kongens Nytorv,3.702,Bispebjerg,1.207,43.59246400865578
62," Solsortvej 19, 2000 Frederiksberg",1491303,1995-02-17, Rækkehus ,10577,6,141,1929,"19, Solsortvej, Frederiksberg, Frederiksberg Kommune, Region Hovedstaden, 2000, Danmark",55.69003299999999,12.522101,,,0.41574,Grøndal,0.924,Lindevang,1.5,Flintholm,3.04,61.587818913275946
63," Hjørringgade 11, 5. tv, 2100 København Ø",188274,1995-02-18, Ejerlejlighed ,4592,2,41,1899,"11, Hjørringgade, Indre Østerbro, Østerbro, København, Københavns Kommune, Region Hovedstaden, 2100, Danmark",55.706318,12.587649,,,0.23127,Nordhavn,2.749,Nørreport,2.891,Bispebjerg,2.445,-29.34007652773361
64," Sankt Jørgens Allé 10, 2. th, 1615 København V",577496,1995-02-19, Ejerlejlighed ,5203,4,111,1877,"10, Sankt Jørgens Allé, Kødbyen, Vesterbro, København, Københavns Kommune, Region Hovedstaden, 1615, Danmark",55.67411600000001,12.559159,,,0.32897,Vesterport,0.94,Forum,1.844,Carlsberg,1.563,-19.16874669870434
65," Eliasgade 4, 1. tv, 2300 København S",152000,1995-02-20, Ejerlejlighed ,1854,4,82,1900,"4, Eliasgade, Margretheholm, Christianshavn, København, Københavns Kommune, Region Hovedstaden, 2300, Danmark",55.665222,12.616349000000001,,,3.45965,Nørreport,0.336,Lergravsparken,5.052,Carlsberg,3.769,-70.3898509909977
66," Amsterdamvej 30, 2300 København S",848800,1995-02-22, Villa ,6382,5,133,1926,"30, Amsterdamvej, København, Københavns Kommune, Region Hovedstaden, 2300, Danmark",55.648832999999996,12.616439999999999,,,4.02773,Dybbølsbro,1.255,Amager Strand,5.327,Carlsberg,5.129,-0.07932697325845886
67," Ane Katrines Vej 4, 1. tv, 2000 Frederiksberg",209000,1995-02-22, Ejerlejlighed ,3371,2,62,1932,"4, Ane Katrines Vej, Frederiksberg, Frederiksberg Kommune, Region Hovedstaden, 2000, Danmark",55.69104300000001,12.535524,,,0.72976,Fuglebakken,1.116,Frederiksberg,1.752,Bispebjerg,2.225,-46.24604672176895
68," Rosenvængets Hovedvej 22, 2. th, 2100 København Ø",330000,1995-02-22, Ejerlejlighed ,5593,2,59,1938,"22, Rosenvængets Hovedvej, Indre Østerbro, Østerbro, København, Københavns Kommune, Region Hovedstaden, 2100, Danmark",55.700970999999996,12.586181,,,0.56167,Nordhavn,2.165,Nørreport,2.863,Bispebjerg,1.882,-12.513230685805748
69," Slejpnersgade 6, 5. 4, 2200 København N",86165,1995-02-23, Ejerlejlighed ,2052,1,42,1938,"6, Slejpnersgade, Nørrebro, København, Københavns Kommune, Region Hovedstaden, 2200, Danmark",55.701175,12.543234,,,0.34992,Nørrebro,2.244,Forum,0.589,Bispebjerg,2.332,-67.26350327311789
70," Sankt Hans Torv 24, 4, 2200 København N",700000,1995-02-24, Ejerlejlighed ,4930,5,142,1907,"Sankt Hans Torv, Guldbergsgade, Nørrebro, København, Københavns Kommune, Region Hovedstaden, 1371, Danmark",55.690779299999996,12.560607207332303,,,1.08218,Nørreport,1.082,Nørreport,2.107,Bispebjerg,0.747,-20.820172386102037
71," Christian Winthers Vej 19, 1, 1860 Frederiksberg C",640000,1995-02-24, Ejerlejlighed ,2747,7,233,1885,"19, Christian Winthers Vej, Frederiksberg, Frederiksberg Kommune, Region Hovedstaden, 1860, Danmark",55.681081000000006,12.537419,,,1.66206,Vesterport,0.327,Frederiksberg,1.916,Carlsberg,2.148,-55.51777184033681
72," Østerbrogade 84D, 4, 2100 København Ø",767500,1995-02-24, Ejerlejlighed ,2647,7,266,1900,"84D, Østerbrogade, Indre Østerbro, Østerbro, København, Københavns Kommune, Region Hovedstaden, 2100, Danmark",55.700678,12.577791,,,0.96676,Nordhavn,1.969,Nørreport,2.358,Bispebjerg,1.628,-56.26456058027527
73," Sofiegade 24, 3. 24, 1418 København K",250000,1995-02-24, Ejerlejlighed ,6579,1,38,1975,"24, Sofiegade, Christianshavn, København, Københavns Kommune, Region Hovedstaden, 1418, Danmark",55.670401,12.591674000000001,,,1.91245,Nørreport,0.887,Islands Brygge,3.571,Carlsberg,2.269,8.493936828681054
74," Hans Egedes Gade 13, 2. tv, 2200 København N",471890,1995-02-25, Ejerlejlighed ,4916,4,96,1907,"13, Hans Egedes Gade, Sorte Hest, Nørrebro, København, Københavns Kommune, Region Hovedstaden, 2200, Danmark",55.68826899999999,12.545297,,,1.40771,Fuglebakken,0.865,Forum,2.03,Bispebjerg,1.568,-18.204809654805214
75," Bisiddervej 2, 3. th, 2400 København NV",416000,1995-02-26, Ejerlejlighed ,6029,3,69,1935,"Tribeca NV, Bisiddervej, Nørrebro, Bispebjerg, Københavns Kommune, Region Hovedstaden, 2400, Danmark",55.706198300000004,12.534381800000002,,,0.66353,Nørrebro,2.787,Frederiksberg,0.458,Bispebjerg,3.121,-0.42830088963269725
76," Rubikonvej 4, 2300 København S",855000,1995-02-26, Villa ,6107,4,140,1979,"4, Rubikonvej, Christianshavn, København, Københavns Kommune, Region Hovedstaden, 2300, Danmark",55.658451,12.618238,,,3.77751,Dybbølsbro,0.428,Lergravsparken,5.204,Carlsberg,4.37,1.5221956855421876
77," Grækenlandsvej 39, 1. tv, 2300 København S",380000,1995-02-27, Ejerlejlighed ,4471,3,85,1934,"39, Grækenlandsvej, København, Københavns Kommune, Region Hovedstaden, 2300, Danmark",55.65198,12.616387,,,3.87781,Dybbølsbro,1.066,Amager Strand,5.224,Carlsberg,4.843,-19.090102969651998
78," Fuglebakkevej 75, 2000 Frederiksberg",2100000,1995-02-28, Villa ,9170,7,217,1971,"75, Fuglebakkevej, Frederiksberg, Frederiksberg Kommune, Region Hovedstaden, 2000, Danmark",55.692747,12.528032000000001,,,0.29456,Fuglebakken,1.269,Fasanvej,1.744,Bispebjerg,2.728,66.20950493613834
79," Harsdorffsvej 11, 3. 18, 1874 Frederiksberg C",340000,1995-02-28, Ejerlejlighed ,5574,2,61,1974,"11, Harsdorffsvej, Frederiksberg, Frederiksberg Kommune, Region Hovedstaden, 1874, Danmark",55.680149,12.546512,,,1.08945,Vesterport,0.433,Forum,1.925,Carlsberg,1.653,1.7648490749756627
80," Esplanaden 6, 3, 1263 København K",1531302,1995-02-28, Ejerlejlighed ,6600,6,232,1777,"6, Esplanaden, Frederiksstaden, København, Københavns Kommune, Region Hovedstaden, 1263, Danmark",55.687277,12.590939,,,0.59154,Østerport,0.956,Kongens Nytorv,3.759,Bispebjerg,1.314,19.84964317492601
81," Fuglevangsvej 6A, 2. tv, 1962 Frederiksberg C",590000,1995-03-01, Ejerlejlighed ,6629,3,89,1971,"6A, Fuglevangsvej, Frederiksberg, Frederiksberg Kommune, Region Hovedstaden, 1962, Danmark",55.682607999999995,12.546146,,,1.24011,Vesterport,0.428,Forum,2.178,Carlsberg,1.573,18.907251506744473
82," Normasvej 32, 2000 Frederiksberg",1225000,1995-03-01, Villa ,6622,5,185,1925,"32, Normasvej, Frederiksberg Kommune, Region Hovedstaden, 2000, Danmark",55.670787,12.51251,,,0.65814,Langgade,1.39,Fasanvej,1.222,Ålholm,4.033,16.781884875846508
83," Kong Georgs Vej 38, 2000 Frederiksberg",1128870,1995-03-01, Villa ,7732,5,146,1890,"38, Kong Georgs Vej, Frederiksberg, Frederiksberg Kommune, Region Hovedstaden, 2000, Danmark",55.688314,12.535055,,,0.93777,Fuglebakken,0.812,Frederiksberg,2.055,Bispebjerg,2.21,33.13130617445504
84," Platanvej 5, 3. 82, 1810 Frederiksberg C",520320,1995-03-01, Ejerlejlighed ,7884,2,66,1976,"5, Platanvej, Sorte Hest, København, Københavns Kommune, Region Hovedstaden, 1810, Danmark",55.673122,12.540345,,,1.44057,Vesterport,1.034,Frederiksberg,1.062,Carlsberg,2.406,35.064757075310084
85," Lykkesholms Allé 14A, 1902 Frederiksberg C",800000,1995-03-01, Villa ,4969,6,161,1867,"14A, Lykkesholms Alle, Frederiksberg, Frederiksberg Kommune, Region Hovedstaden, 1902, Danmark",55.676902,12.54807,,,0.90963,Vesterport,0.616,Forum,1.633,Carlsberg,1.764,-14.270926186847635
86," Gammel Kongevej 72C, 3. th, 1850 Frederiksberg C",426708,1995-03-01, Ejerlejlighed ,6773,2,63,1941,"Gammel Kongevej, Frederiksberg, Frederiksberg Kommune, Region Hovedstaden, 1850, Danmark",55.6770056,12.5389573,,,1.48272,Vesterport,0.63,Frederiksberg,1.471,Carlsberg,2.236,15.663103248061747
87," Vester Søgade 22, 3. th, 1601 København V",788280,1995-03-02, Ejerlejlighed ,7102,4,111,1974,"22, Vester Søgade, Kødbyen, Vesterbro, København, Københavns Kommune, Region Hovedstaden, 1601, Danmark",55.677184,12.559667999999999,,,0.19895,Vesterport,0.668,Forum,2.095,Carlsberg,1.248,22.827346465816913
88," Kuhlausgade 30, 2100 København Ø",1240000,1995-03-03, Rækkehus ,9118,5,136,1892,"30, Kuhlausgade, Indre Østerbro, Østerbro, København, Københavns Kommune, Region Hovedstaden, 2100, Danmark",55.714271999999994,12.57512,,,0.23337,Svanemøllen,3.451,Nørreport,2.279,Bispebjerg,3.083,55.05132667116354
89," Normasvej 37, st. tv, 2000 Frederiksberg",689000,1995-03-03, Ejerlejlighed ,7742,3,89,1936,"37, Normasvej, Frederiksberg Kommune, Region Hovedstaden, 2000, Danmark",55.670401,12.51143,,,0.57805,Langgade,1.459,Lindevang,1.16,Ålholm,4.113,29.330794159901107
90," Thorvaldsensvej 15, 1. tv, 1871 Frederiksberg C",890983,1995-03-03, Ejerlejlighed ,5034,6,177,1903,"15, Thorvaldsensvej, Frederiksberg, Frederiksberg Kommune, Region Hovedstaden, 1871, Danmark",55.680676,12.545779,,,1.15514,Vesterport,0.456,Forum,1.966,Carlsberg,1.67,-15.210653970535393
91," Sofiegade 10, 1. th, 1418 København K",1025000,1995-03-04, Ejerlejlighed ,8913,3,115,1977,"10, Sofiegade, Christianshavn, København, Københavns Kommune, Region Hovedstaden, 1418, Danmark",55.67118000000001,12.590264,,,1.78879,Nørreport,0.931,Islands Brygge,3.503,Carlsberg,2.147,50.29340348037232
92," Store Kongensgade 71, 4, 1264 København K",1695000,1995-03-05, Ejerlejlighed ,6780,6,250,1899,"71, Store Kongensgade, Frederiksstaden, København, Københavns Kommune, Region Hovedstaden, 1264, Danmark",55.685038,12.588142,,,0.80088,Østerport,0.662,Kongens Nytorv,3.767,Bispebjerg,1.152,16.819343537317298
93," Ved Volden 13, 1. th, 1425 København K",1121000,1995-03-06, Ejerlejlighed ,6517,6,172,1938,"13, Ved Volden, Christianshavn, København, Københavns Kommune, Region Hovedstaden, 1425, Danmark",55.671634999999995,12.595235,,,1.97353,Nørreport,1.041,Amagerbro,3.819,Carlsberg,2.308,11.059986366734833
94," Slejpnersgade 8, 2. th, 2200 København N",289409,1995-03-06, Ejerlejlighed ,5262,2,55,1938,"8, Slejpnersgade, Nørrebro, København, Københavns Kommune, Region Hovedstaden, 2200, Danmark",55.7013,12.543279,,,0.35567,Nørrebro,2.257,Forum,0.576,Bispebjerg,2.339,-10.357242233062077
95," Carl Nielsens Allé 2, 4. th, 2100 København Ø",322000,1995-03-06, Ejerlejlighed ,4879,2,66,1938,"2, Carl Nielsens Allé, Indre Østerbro, Østerbro, København, Københavns Kommune, Region Hovedstaden, 2100, Danmark",55.712889000000004,12.577966,,,0.29694,Svanemøllen,3.314,Nørreport,2.394,Bispebjerg,2.955,-18.285656863401893
96," Højdevangs Allé 35, 2300 København S",1210600,1995-03-06, Villa ,6763,7,179,1926,"35, Højdevangs Allé, Christianshavn, København, Københavns Kommune, Region Hovedstaden, 2300, Danmark",55.652370999999995,12.604938,,,3.20377,Dybbølsbro,1.072,DR Byen,4.518,Carlsberg,4.409,13.027492270410296
97," Bülowsvej 40, 1. th, 1870 Frederiksberg C",910000,1995-03-07, Ejerlejlighed ,5028,7,181,1906,"40, Bülowsvej, Sorte Hest, Nørrebro, København, Københavns Kommune, Region Hovedstaden, 1870, Danmark",55.68369000000001,12.54623,,,1.30703,Vesterport,0.465,Forum,2.295,Carlsberg,1.537,-16.737505657919435
98," Østerbrogade 152, 3. th, 2100 København Ø",820450,1995-03-07, Ejerlejlighed ,4609,6,178,1904,"152, Østerbrogade, Indre Østerbro, Østerbro, København, Københavns Kommune, Region Hovedstaden, 2100, Danmark",55.70851,12.577739999999999,,,0.78468,Svanemøllen,2.829,Nørreport,2.28,Bispebjerg,2.473,-23.259221436579384
99," Østerdalsgade 3A, 2. tv, 2300 København S",212500,1995-03-07, Ejerlejlighed ,4167,2,51,1936,"3A, Østerdalsgade, Christianshavn, København, Københavns Kommune, Region Hovedstaden, 2300, Danmark",55.65505600000001,12.602932000000001,,,2.96424,Dybbølsbro,0.878,DR Byen,4.319,Carlsberg,4.087,-31.42358730176145
100," Kornskyldvej 99, 2300 København S",200000,1995-03-09, Villa ,2083,3,96,1965,"99, Kornskyldvej, København, Københavns Kommune, Region Hovedstaden, 2300, Danmark",55.630368999999995,12.586596,,,4.11939,Sydhavn,0.507,Ørestad,4.902,Carlsberg,6.36,-65.17615327173635
101," Livjægergade 41, 2. tv, 2100 København Ø",725000,1995-03-09, Ejerlejlighed ,4421,5,164,1889,"41, Livjægergade, Indre Østerbro, Østerbro, København, Københavns Kommune, Region Hovedstaden, 2100, Danmark",55.699656999999995,12.585689,,,0.70444,Nordhavn,2.02,Nørreport,2.867,Bispebjerg,1.743,-26.772305653710244
102," Lykkesholms Allé 26, 2. th, 1902 Frederiksberg C",1295000,1995-03-10, Ejerlejlighed ,6475,6,200,1906,"26, Lykkesholms Alle, Frederiksberg, Frederiksberg Kommune, Region Hovedstaden, 1902, Danmark",55.678288,12.548896000000001,,,0.88158,Vesterport,0.456,Forum,1.794,Carlsberg,1.63,5.029521811536215
103," Marielystvej 24, 2000 Frederiksberg",1875400,1995-03-11, Villa ,9104,7,206,1946,"Marielystvej, Frederiksberg Kommune, Region Hovedstaden, 2500, Danmark",55.6758014,12.498490400000001,,,0.40837,Peter Bangs Vej,1.119,Flintholm,0.445,KB Hallen,4.664,45.68497863692371
104," Strandvænget 3, 4. th, 2100 København Ø",997621,1995-03-11, Ejerlejlighed ,8045,4,124,1929,"3, Strandvænget, Indre Østerbro, Østerbro, København, Københavns Kommune, Region Hovedstaden, 2100, Danmark",55.716951,12.578318,,,0.15624,Svanemøllen,3.766,Nørreport,2.587,Bispebjerg,3.405,26.625114112128944
105," Sprogøvej 23, st. tv, 2000 Frederiksberg",300000,1995-03-13, Ejerlejlighed ,3261,2,92,1980,"23, Sprogøvej, Frederiksberg, Frederiksberg Kommune, Region Hovedstaden, 2000, Danmark",55.682175,12.527811,,,1.21028,Grøndal,0.287,Fasanvej,1.83,Flintholm,2.706,-47.91677758020379
106," Købmagergade 30, 2, 1150 København K",930800,1995-03-13, Ejerlejlighed ,7160,3,130,1730,"30, Købmagergade, Christianshavn, København, Københavns Kommune, Region Hovedstaden, 1150, Danmark",55.68028,12.57889,,,0.56747,Nørreport,0.409,Kongens Nytorv,3.252,Carlsberg,0.907,13.71878424666599
107," Moldaugade 12, 4. th, 2300 København S",205000,1995-03-13, Ejerlejlighed ,2697,3,76,1940,"12, Moldaugade, Christianshavn, København, Københavns Kommune, Region Hovedstaden, 2300, Danmark",55.660923,12.613449000000001,,,3.43315,Dybbølsbro,0.263,Lergravsparken,4.878,Carlsberg,3.962,-56.7587500601241
108," Gustav Adolfs Gade 1, st. th, 2100 København Ø",739530,1995-03-14, Ejerlejlighed ,7180,4,103,1902,"1, Gustav Adolfs Gade, Indre Østerbro, Østerbro, København, Københavns Kommune, Region Hovedstaden, 2100, Danmark",55.70264,12.577923,,,0.86316,Nordhavn,2.185,Nørreport,2.317,Bispebjerg,1.839,16.35507203318875
109," Sankt Pauls Gade 8, 4, 1313 København K",750000,1995-03-14, Ejerlejlighed ,5952,3,126,1854,"8, Sankt Pauls Gade, Frederiksstaden, København, Københavns Kommune, Region Hovedstaden, 1313, Danmark",55.687045999999995,12.589126,,,0.5853,Østerport,0.894,Kongens Nytorv,3.68,Bispebjerg,1.199,-3.7417588045347485
110," Fredericiagade 36, 1. th, 1310 København K",655000,1995-03-15, Ejerlejlighed ,10234,2,64,1856,"36, Fredericiagade, Frederiksstaden, København, Københavns Kommune, Region Hovedstaden, 1310, Danmark",55.68634399999999,12.588796,,,0.65951,Østerport,0.813,Kongens Nytorv,3.71,Bispebjerg,1.178,62.32849551907368
111," Korsørgade 28, 1. th, 2100 København Ø",345360,1995-03-16, Ejerlejlighed ,5155,2,67,1917,"28, Korsørgade, Indre Østerbro, Østerbro, København, Københavns Kommune, Region Hovedstaden, 2100, Danmark",55.70715600000001,12.583287,,,0.51845,Nordhavn,2.751,Nørreport,2.618,Bispebjerg,2.422,-17.59076206563964
112," Tietgensgade 62, 3. tv, 1704 København V",320000,1995-03-16, Ejerlejlighed ,3902,4,82,1889,"62, Tietgensgade, Kødbyen, Vesterbro, København, Københavns Kommune, Region Hovedstaden, 1704, Danmark",55.67065,12.564877000000001,,,0.65621,Vesterport,1.451,Forum,1.96,Carlsberg,1.819,-36.70413807646763
113," Amagerbrogade 253, 2. tv, 2300 København S",370600,1995-03-17, Ejerlejlighed ,3985,4,93,1938,"253, Amagerbrogade, København, Københavns Kommune, Region Hovedstaden, 2300, Danmark",55.645291,12.615065,,,4.14846,Dybbølsbro,1.465,Femøren,5.384,Carlsberg,5.413,-34.02099407265141
114," Pilestræde 57, 3. 3, 1112 København K",561243,1995-03-17, Ejerlejlighed ,7688,2,73,1991,"57, Pilestræde, Christianshavn, København, Københavns Kommune, Region Hovedstaden, 1112, Danmark",55.681635,12.578128,,,0.44827,Nørreport,0.448,Nørreport,3.3,Carlsberg,0.76,27.426822395827582
115," Pilestræde 57, 3. 4, 1112 København K",561243,1995-03-17, Ejerlejlighed ,8769,2,64,1991,"57, Pilestræde, Christianshavn, København, Københavns Kommune, Region Hovedstaden, 1112, Danmark",55.681635,12.578128,,,0.44827,Nørreport,0.448,Nørreport,3.3,Carlsberg,0.76,42.35543674715095
116," Dag Hammarskjölds Allé 37, 1. tv, 2100 København Ø",620000,1995-03-17, Ejerlejlighed ,4697,5,107,1890,"37, Dag Hammarskjölds Allé, Indre Østerbro, Østerbro, København, Københavns Kommune, Region Hovedstaden, 2100, Danmark",55.695707999999996,12.579603,,,0.63026,Østerport,1.465,Nørreport,2.665,Bispebjerg,1.166,-22.882849355852063
117," Pileskellet 2, 2000 Frederiksberg",1079644,1995-03-17, Ejerlejlighed ,6790,5,159,1979,"Pileskellet, Frederiksberg Kommune, Region Hovedstaden, 2500, Danmark",55.67100210000001,12.4974767,,,0.59524,Langgade,1.656,Flintholm,0.289,Ålholm,4.891,11.671509237432163
118," Ved Vænget 1, 2. th, 2100 København Ø",581981,1995-03-20, Ejerlejlighed ,6847,3,85,1902,"1, Ved Vænget, Indre Østerbro, Østerbro, København, Københavns Kommune, Region Hovedstaden, 2100, Danmark",55.701818,12.583243,,,0.61327,Nordhavn,2.183,Nørreport,2.663,Bispebjerg,1.873,14.028611239098698
119," Fælleddiget 19, 2300 København S",829624,1995-03-20, Villa ,6691,4,124,1937,"19, Fælleddiget, København, Københavns Kommune, Region Hovedstaden, 2300, Danmark",55.63896,12.585903,,,3.37043,Dybbølsbro,0.212,Bella Center,4.187,Carlsberg,5.41,12.084561779683725
120," Kentiavej 20, 2300 København S",360000,1995-03-20, Villa ,3364,3,107,1923,"20, Kentiavej, København, Københavns Kommune, Region Hovedstaden, 2300, Danmark",55.6476,12.610777,,,3.78337,Dybbølsbro,1.598,Sundby,5.038,Carlsberg,5.053,-43.11738380547634
121," Eversvej 11, 4. th, 2000 Frederiksberg",581812,1995-03-21, Ejerlejlighed ,7183,2,81,1981,"11, Eversvej, Frederiksberg, Frederiksberg Kommune, Region Hovedstaden, 2000, Danmark",55.68246800000001,12.517614,,,0.9097,Grøndal,0.305,Lindevang,1.203,Flintholm,3.333,22.654933746186426
122," Kongelundsvej 96D, 2300 København S",65000,1995-03-22, Villa ,765,4,85,1965,"96D, Kongelundsvej, København, Københavns Kommune, Region Hovedstaden, 2300, Danmark",55.635552000000004,12.587202,,,3.74255,Dybbølsbro,0.387,Bella Center,4.505,Carlsberg,5.798,-86.47398230714374
123," Frankrigshusene 12, 3. th, 2300 København S",223150,1995-03-22, Ejerlejlighed ,3985,2,56,1936,"12, Frankrigshusene, Christianshavn, København, Københavns Kommune, Region Hovedstaden, 2300, Danmark",55.662676,12.608066,,,3.07358,Dybbølsbro,0.331,Amagerbro,4.53,Carlsberg,3.589,-28.473564236183822
124," Borgergade 134, 3. th, 1300 København K",158852,1995-03-22, Ejerlejlighed ,1222,5,130,1899,"134, Borgergade, Frederiksstaden, København, Københavns Kommune, Region Hovedstaden, 1300, Danmark",55.686699,12.587941,,,0.61556,Østerport,0.838,Kongens Nytorv,3.643,Bispebjerg,1.124,-77.52312983979252
125," Sundbyvestervej 42, 2300 København S",620000,1995-03-23, Villa ,6667,4,93,1942,"42, Sundbyvestervej, København, Københavns Kommune, Region Hovedstaden, 2300, Danmark",55.646178000000006,12.606268,,,3.63441,Dybbølsbro,1.296,Sundby,4.836,Carlsberg,5.056,21.299783490711928
126," Marielystvej 25, 2000 Frederiksberg",1599744,1995-03-23, Villa ,9141,6,175,1948,"Marielystvej, Frederiksberg Kommune, Region Hovedstaden, 2500, Danmark",55.6739884,12.4999896,,,0.50691,Peter Bangs Vej,1.319,Flintholm,0.484,Ålholm,4.631,63.94746124459696
127," Wilkensvej 17, 2. tv, 2000 Frederiksberg",554000,1995-03-24, Ejerlejlighed ,6442,3,86,1979,"17, Wilkensvej, Frederiksberg, Frederiksberg Kommune, Region Hovedstaden, 2000, Danmark",55.682209,12.515343,,,0.87093,Peter Bangs Vej,0.199,Lindevang,1.078,Flintholm,3.479,14.571291372472302
128," Platanvej 22A, 2. tv, 1810 Frederiksberg C",800000,1995-03-25, Ejerlejlighed ,7843,3,102,1970,"22A, Platanvej, Sorte Hest, København, Københavns Kommune, Region Hovedstaden, 1810, Danmark",55.671645,12.538931,,,1.47267,Dybbølsbro,1.144,Frederiksberg,0.882,Carlsberg,2.58,36.86414798010645
129," Burmeistersgade 1B, 4. tv, 1429 København K",275000,1995-03-27, Ejerlejlighed ,4661,2,59,1902,"1B, Burmeistersgade, Christianshavn, København, Københavns Kommune, Region Hovedstaden, 1429, Danmark",55.674762,12.597676,,,1.89417,Nørreport,0.937,Kongens Nytorv,4.059,Carlsberg,2.188,-18.896345318399845
130," Sprogøvej 7, 2. mf, 2000 Frederiksberg",868078,1995-03-27, Ejerlejlighed ,10334,3,84,1982,"7, Sprogøvej, Frederiksberg, Frederiksberg Kommune, Region Hovedstaden, 2000, Danmark",55.682839,12.528128,,,1.16765,Grøndal,0.316,Frederiksberg,1.835,Flintholm,2.674,71.60411823314513
131," Milanovej 38, 2300 København S",1018000,1995-03-27, Villa ,7485,7,136,1972,"38, Milanovej, København, Københavns Kommune, Region Hovedstaden, 2300, Danmark",55.65819499999999,12.625741,,,4.24634,Dybbølsbro,0.427,Øresund,5.677,Carlsberg,4.728,22.22137554157323
132," Lindevej 11, 1877 Frederiksberg C",1710000,1995-03-27, Villa ,10059,7,170,1866,"11, Lindevej, Frederiksberg, Frederiksberg Kommune, Region Hovedstaden, 1877, Danmark",55.677376,12.543268,,,1.21491,Vesterport,0.771,Forum,1.568,Carlsberg,1.981,61.108975591005176
133," Finsensvej 7B, 2. th, 2000 Frederiksberg",856000,1995-03-27, Ejerlejlighed ,7926,4,108,1969,"7B, Finsensvej, Frederiksberg, Frederiksberg Kommune, Region Hovedstaden, 2000, Danmark",55.68036899999999,12.519805999999999,,,1.05085,Peter Bangs Vej,0.265,Fasanvej,1.418,Flintholm,3.24,27.74942244667706
134," Lindevej 3, 1877 Frederiksberg C",1476544,1995-03-28, Villa ,7572,7,195,1875,"3, Lindevej, Frederiksberg, Frederiksberg Kommune, Region Hovedstaden, 1877, Danmark",55.676649,12.542763,,,1.24205,Vesterport,0.834,Frederiksberg,1.481,Carlsberg,2.052,22.354664785060624
135," Cypernsvej 29, st. tv, 2300 København S",339825,1995-03-28, Ejerlejlighed ,4925,3,69,1939,"29, Cypernsvej, København, Københavns Kommune, Region Hovedstaden, 2300, Danmark",55.652468000000006,12.61962,,,4.04714,Dybbølsbro,0.86,Amager Strand,5.408,Carlsberg,4.926,-21.124700380630046
136," Upsalagade 18, st. th, 2100 København Ø",976000,1995-03-28, Ejerlejlighed ,5708,5,146,1898,"18, Upsalagade, Indre Østerbro, Frederiksstaden, København, Københavns Kommune, Region Hovedstaden, 2100, Danmark",55.69234,12.579360000000001,,,0.51207,Østerport,1.113,Nørreport,2.84,Bispebjerg,0.856,-7.8705970333944855
137," Howitzvej 15, st. 3, 2000 Frederiksberg",619400,1995-03-29, Ejerlejlighed ,7120,2,87,1977,"15, Howitzvej, Frederiksberg, Frederiksberg Kommune, Region Hovedstaden, 2000, Danmark",55.679301,12.531127,,,1.59041,Grøndal,0.222,Frederiksberg,1.744,Carlsberg,2.585,12.248544342379082
138," Enghavevej 11, 2. th, 1674 København V",213000,1995-03-29, Ejerlejlighed ,3179,2,67,1895,"11, Enghavevej, Sorte Hest, Vesterbro, København, Københavns Kommune, Region Hovedstaden, 1674, Danmark",55.67095,12.546286,,,1.04136,Dybbølsbro,1.27,Forum,1.014,Carlsberg,2.307,-48.8059004460763
139," Vagtelvej 35, 5. th, 2000 Frederiksberg",756060,1995-03-30, Ejerlejlighed ,6353,5,119,1969,"35, Vagtelvej, Frederiksberg, Frederiksberg Kommune, Region Hovedstaden, 2000, Danmark",55.692538,12.520883,,,0.40121,Grøndal,1.121,Lindevang,1.541,Flintholm,3.161,2.0879309236603616
140," Caprivej 4, 1. th, 2300 København S",293000,1995-03-30, Ejerlejlighed ,5635,2,52,1937,"4, caprivej, Christianshavn, København, Københavns Kommune, Region Hovedstaden, 2300, Danmark",55.660691,12.621338,,,3.92858,Dybbølsbro,0.325,Lergravsparken,5.376,Carlsberg,4.336,-7.162823392442319
141," Frederik VIs Alle 6, 1. tv, 2000 Frederiksberg",627000,1995-03-30, Ejerlejlighed ,6029,4,104,1904,"6, Frederik VI's Alle, Frederiksberg, Frederiksberg Kommune, Region Hovedstaden, 2000, Danmark",55.67698000000001,12.531308000000001,,,1.74656,Peter Bangs Vej,0.473,Frederiksberg,1.489,Carlsberg,2.669,-1.146108314614105
142," Adelgade 47, 2. th, 1304 København K",473812,1995-03-30, Ejerlejlighed ,5850,3,81,1957,"47, Adelgade, Frederiksstaden, København, Københavns Kommune, Region Hovedstaden, 1304, Danmark",55.685203,12.584333,,,0.80648,Østerport,0.656,Kongens Nytorv,3.572,Bispebjerg,0.913,-5.09152854014006
143," Birkegade 11, 1. tv, 2200 København N",525100,1995-03-30, Ejerlejlighed ,6251,4,84,1892,"Urban Room, 11, Birkegade, Nørrebro, København, Københavns Kommune, Region Hovedstaden, 1635, Danmark",55.6913031,12.5586424,,,1.20763,Nørreport,1.126,Forum,1.99,Bispebjerg,0.881,0.1864505478654331
144," H.C. Lumbyes Gade 23, 2100 København Ø",496000,1995-03-31, Rækkehus ,3568,7,139,1895,"23, H.C. Lumbyes Gade, Indre Østerbro, Østerbro, København, Københavns Kommune, Region Hovedstaden, 2100, Danmark",55.713913,12.572851,,,0.37476,Svanemøllen,3.405,Nørreport,2.132,Bispebjerg,3.032,-41.52768749214743
145," Lyøvej 22, 3. mf, 2000 Frederiksberg",644000,1995-03-31, Ejerlejlighed ,7156,3,90,1979,"22, Lyøvej, Frederiksberg, Frederiksberg Kommune, Region Hovedstaden, 2000, Danmark",55.68233100000001,12.526202,,,1.13441,Grøndal,0.195,Fasanvej,1.728,Flintholm,2.802,18.31488911423659
146," C.F. Richs Vej 21, 2000 Frederiksberg",1729259,1995-03-31, Villa ,8354,8,207,1935,"21, C.F. Richs Vej, Frederiksberg, Frederiksberg Kommune, Region Hovedstaden, 2000, Danmark",55.68866,12.516642,,,0.22183,Grøndal,0.619,Lindevang,1.127,Flintholm,3.367,35.39342535317792
147," Solitudevej 6, 1. tv, 2200 København N",485000,1995-04-01, Ejerlejlighed ,6063,3,80,1892,"6, Solitudevej, Nørrebro, København, Københavns Kommune, Region Hovedstaden, 2200, Danmark",55.68983000000001,12.55447,,,1.30118,Nørreport,0.906,Forum,2.012,Bispebjerg,1.04,-1.3494017724457374
148," Ungarnsgade 37, st. tv, 2300 København S",290000,1995-04-01, Ejerlejlighed ,5179,2,56,1929,"37, Ungarnsgade, Christianshavn, København, Københavns Kommune, Region Hovedstaden, 2300, Danmark",55.66270400000001,12.614827,,,3.49715,Dybbølsbro,0.144,Lergravsparken,4.956,Carlsberg,3.883,-14.963603524711285
149," Nyelandsvej 73, st. 2, 2000 Frederiksberg",479400,1995-04-02, Ejerlejlighed ,7050,2,68,1957,"73, Nyelandsvej, Frederiksberg, Frederiksberg Kommune, Region Hovedstaden, 2000, Danmark",55.68464399999999,12.522309,,,0.78333,Grøndal,0.338,Fasanvej,1.444,Flintholm,3.013,15.530209920849513
150," Agerlandsvej 23, 2300 København S",809937,1995-04-03, Villa ,5436,5,149,1959,"23, Agerlandsvej, København, Københavns Kommune, Region Hovedstaden, 2300, Danmark",55.640831999999996,12.595879,,,3.55922,Dybbølsbro,0.804,Sundby,4.555,Carlsberg,5.361,-11.915783105849059
151," Cedergangen 14, 2300 København S",200000,1995-04-03, Villa ,2174,3,92,2012,"14, Cedergangen, Christianshavn, København, Københavns Kommune, Region Hovedstaden, 2300, Danmark",55.646012,12.593558999999999,,,3.03515,Dybbølsbro,0.499,Sundby,4.128,Carlsberg,4.768,-63.79321830657517
152," Greisvej 82, 2300 København S",918930,1995-04-03, Villa ,10811,3,85,1938,"82, Greisvej, København, Københavns Kommune, Region Hovedstaden, 2300, Danmark",55.646325,12.62735,,,4.76687,Dybbølsbro,0.701,Femøren,6.067,Carlsberg,5.764,70.54023073120972
153," Vermundsgade 34, 2100 København Ø",996985,1995-04-05, Rækkehus ,4316,7,231,1926,"34, Vermundsgade, Nørrebro, København, Københavns Kommune, Region Hovedstaden, 2100, Danmark",55.705693000000004,12.553675,,,1.15156,Nørrebro,2.666,Forum,0.759,Bispebjerg,2.35,-32.03470702171551
154," Kålagervej 5, 2300 København S",839438,1995-04-05, Villa ,6312,7,133,1993,"5, Kålagervej, København, Københavns Kommune, Region Hovedstaden, 2300, Danmark",55.638566000000004,12.598798,,,3.87066,Dybbølsbro,1.0,Bella Center,4.85,Carlsberg,5.658,-3.1896891088400188
155," Brorsonsgade 4, 4. tv, 1624 København V",446000,1995-04-06, Ejerlejlighed ,6464,3,69,1885,"4, Brorsonsgade, Sorte Hest, Vesterbro, København, Københavns Kommune, Region Hovedstaden, 1624, Danmark",55.67208299999999,12.546188,,,1.1269,Dybbølsbro,1.153,Forum,1.111,Carlsberg,2.217,-0.7553890560707458
156," Bernhard Bangs Alle 55, st. th, 2000 Frederiksberg",420000,1995-04-07, Ejerlejlighed ,5833,2,72,1936,"55, Bernhard Bangs Alle, Frederiksberg, Frederiksberg Kommune, Region Hovedstaden, 2000, Danmark",55.68649,12.506503,,,0.72735,Grøndal,0.45,Flintholm,0.45,Flintholm,3.998,-8.90112864936904
157," J.E. Ohlsens Gade 14, 3. th, 2100 København Ø",867800,1995-04-07, Ejerlejlighed ,4987,6,174,1903,"14, J.E. Ohlsens Gade, Indre Østerbro, Østerbro, København, Københavns Kommune, Region Hovedstaden, 2100, Danmark",55.701493000000006,12.579969,,,0.80256,Nordhavn,2.088,Nørreport,2.469,Bispebjerg,1.758,-21.51935918754885
158," Holger Danskes Vej 16, 5. tv, 2000 Frederiksberg",295000,1995-04-08, Ejerlejlighed ,7195,2,41,1885,"16, Holger Danskes Vej, Frederiksberg, Frederiksberg Kommune, Region Hovedstaden, 2000, Danmark",55.686641,12.538231,,,1.20565,Fuglebakken,0.715,Frederiksberg,2.209,Bispebjerg,2.003,13.614232702581788
159," Ceylonvej 34, 2300 København S",970000,1995-04-10, Villa ,7519,5,129,1934,"34, Ceylonvej, København, Københavns Kommune, Region Hovedstaden, 2300, Danmark",55.648986,12.626422,,,4.58948,Dybbølsbro,0.856,Femøren,5.922,Carlsberg,5.498,16.970800080894815
160," Platanvej 24, 6. 1, 1810 Frederiksberg C",888000,1995-04-10, Ejerlejlighed ,7722,3,115,1970,"24, Platanvej, Sorte Hest, København, Københavns Kommune, Region Hovedstaden, 1810, Danmark",55.671278,12.539206,,,1.43811,Dybbølsbro,1.188,Frederiksberg,0.845,Carlsberg,2.594,21.7782590639801
161," Portlandsvej 22, 2300 København S",895000,1995-04-11, Villa ,6832,5,131,1931,"22, Portlandsvej, København, Københavns Kommune, Region Hovedstaden, 2300, Danmark",55.64390699999999,12.600672,,,3.52083,Dybbølsbro,0.951,Sundby,4.633,Carlsberg,5.141,8.113810674234356
162," Vagtelvej 17, 2. tv, 2000 Frederiksberg",864280,1995-04-12, Ejerlejlighed ,6859,5,126,1969,"17, Vagtelvej, Frederiksberg, Frederiksberg Kommune, Region Hovedstaden, 2000, Danmark",55.69155,12.521664999999999,,,0.39985,Grøndal,1.048,Lindevang,1.536,Flintholm,3.092,10.404661494382378
163," Strandboulevarden 107, 1. th, 2100 København Ø",795000,1995-04-12, Ejerlejlighed ,7361,4,108,1915,"107, Strandboulevarden, Indre Østerbro, Østerbro, København, Københavns Kommune, Region Hovedstaden, 2100, Danmark",55.708361,12.584956,,,0.50433,Nordhavn,2.909,Nørreport,2.73,Bispebjerg,2.584,18.845290695484174
164," Brigadevej 8, st. tv, 2300 København S",24000,1995-04-16, Fritidshus ,774,2,0,1898,"8, Brigadevej, Christianshavn, København, Københavns Kommune, Region Hovedstaden, 2300, Danmark",55.662794999999996,12.600978,,,2.6284,Dybbølsbro,0.139,Amagerbro,4.084,Carlsberg,3.298,-87.0290199145323
165," Krogerupgade 51, 4. tv, 2200 København N",305000,1995-04-18, Ejerlejlighed ,5865,2,52,1935,"51, Krogerupgade, Nørrebro, København, Københavns Kommune, Region Hovedstaden, 2200, Danmark",55.696328,12.540523,,,0.50133,Nørrebro,1.764,Frederiksberg,1.122,Bispebjerg,2.144,-2.225556389097274
166," Korfuvej 6, st. tv, 2300 København S",438750,1995-04-18, Ejerlejlighed ,6359,3,69,1940,"6, Korfuvej, København, Københavns Kommune, Region Hovedstaden, 2300, Danmark",55.65359,12.620292,,,4.0448,Dybbølsbro,0.769,Amager Strand,5.421,Carlsberg,4.857,5.62772000930202
167," Stoltenbergsgade 3, st. th, 1576 København V",820000,1995-04-18, Ejerlejlighed ,2818,4,291,1890,"3, Stoltenbergsgade, Kødbyen, Vesterbro, København, Københavns Kommune, Region Hovedstaden, 1576, Danmark",55.671558999999995,12.570683,,,0.74447,Vesterport,1.257,Kongens Nytorv,2.337,Carlsberg,1.689,-52.04873400490063
168," Kingosgade 13, 1. th, 1818 Frederiksberg C",699880,1995-04-18, Ejerlejlighed ,5644,4,124,1891,"13, Kingosgade, Frederiksberg, Frederiksberg Kommune, Region Hovedstaden, 1818, Danmark",55.672555,12.54465,,,1.20144,Vesterport,1.144,Forum,1.104,Carlsberg,2.246,-5.285592020987972
169," Vagtelvej 35, 1. tv, 2000 Frederiksberg",742000,1995-04-18, Ejerlejlighed ,6235,5,119,1969,"35, Vagtelvej, Frederiksberg, Frederiksberg Kommune, Region Hovedstaden, 2000, Danmark",55.692538,12.520883,,,0.40121,Grøndal,1.121,Lindevang,1.541,Flintholm,3.161,4.701345080632063
170," Olufsvej 35, 2100 København Ø",1495000,1995-04-19, Rækkehus ,8081,7,185,1877,"35, Olufsvej, Indre Østerbro, Østerbro, København, Københavns Kommune, Region Hovedstaden, 2100, Danmark",55.700405,12.575545,,,1.10372,Nordhavn,1.916,Nørreport,2.232,Bispebjerg,1.562,33.867485380762794
171," Rahbeks Alle 34, 1. tv, 1801 Frederiksberg C",780000,1995-04-19, Ejerlejlighed ,7800,4,100,1840,"34, Rahbeks Allé, Frederiksberg, Frederiksberg Kommune, Region Hovedstaden, 1801, Danmark",55.668862,12.531646,,,1.21587,Valby,1.374,Frederiksberg,0.621,Carlsberg,3.13,27.961152306581788
172," Nørre Søgade 37B, 1. 5, 1370 København K",369000,1995-04-20, Ejerlejlighed ,6709,2,55,1969,"37B, Nørre Søgade, Kødbyen, Vesterbro, København, Københavns Kommune, Region Hovedstaden, 1370, Danmark",55.68240600000001,12.562106,,,0.61019,Nørreport,0.591,Forum,2.632,Carlsberg,0.694,9.548406058989691
173," Hobrogade 4, 3. tv, 2100 København Ø",456000,1995-04-21, Ejerlejlighed ,6333,3,72,1900,"4, Hobrogade, Indre Østerbro, Østerbro, København, Københavns Kommune, Region Hovedstaden, 2100, Danmark",55.703153,12.584203,,,0.47929,Nordhavn,2.343,Nørreport,2.698,Bispebjerg,2.034,3.362729790162622
174," Harsdorffsvej 4A, 4. th, 1874 Frederiksberg C",373000,1995-04-21, Ejerlejlighed ,6217,2,60,1934,"4A, Harsdorffsvej, Frederiksberg, Frederiksberg Kommune, Region Hovedstaden, 1874, Danmark",55.67919000000001,12.546422,,,1.05847,Vesterport,0.491,Forum,1.823,Carlsberg,1.708,0.027888318012639454
175," Ove Billes Vej 5, 2300 København S",1113400,1995-04-21, Villa ,8837,7,126,1927,"5, Ove Billes Vej, Christianshavn, København, Københavns Kommune, Region Hovedstaden, 2300, Danmark",55.654536,12.606117,,,3.17167,Dybbølsbro,1.003,Amagerbro,4.528,Carlsberg,4.241,40.91177267871095
176," Hiort Lorenzens Gade 8, 4. tv, 2200 København N",269250,1995-04-21, Ejerlejlighed ,3366,2,80,1905,"8, Hiort Lorenzens Gade, Sorte Hest, Nørrebro, København, Københavns Kommune, Region Hovedstaden, 2200, Danmark",55.6877,12.543705000000001,,,1.3638,Fuglebakken,0.874,Forum,2.085,Bispebjerg,1.662,-44.86516590136008
177," Hardangergade 2, 3, 2100 København Ø",1429986,1995-04-24, Ejerlejlighed ,7944,5,180,1900,"2, Hardangergade, Ambassadekvarteret, Østerbro, København, Københavns Kommune, Region Hovedstaden, 2100, Danmark",55.6971,12.589833,,,0.56254,Østerport,1.912,Nørreport,3.2,Bispebjerg,1.697,28.799342816377703
178," Drejøgade 26F, 3. 306, 2100 København Ø",310000,1995-04-25, Ejerlejlighed ,7209,1,43,1974,"26F, Drejøgade, Indre Østerbro, Østerbro, København, Københavns Kommune, Region Hovedstaden, 2100, Danmark",55.711661,12.572001,,,0.57692,Svanemøllen,3.154,Nørreport,1.995,Bispebjerg,2.779,15.61407447798057
179," Herninggade 5, 4. tv, 2100 København Ø",353000,1995-04-25, Ejerlejlighed ,5516,2,64,1935,"5, Herninggade, Marmormolen, Østerbro, København, Københavns Kommune, Region Hovedstaden, 2100, Danmark",55.70737800000001,12.588389999999999,,,0.27977,Nordhavn,2.876,Nørreport,2.939,Bispebjerg,2.572,-10.805916088137636
180," Horserødvej 9A, 2100 København Ø",1445000,1995-04-26, Villa ,11748,4,123,1984,"9A, Horserødvej, Emdrup, København, Københavns Kommune, Region Hovedstaden, 2100, Danmark",55.72099100000001,12.550400999999999,,,0.5858,Emdrup,4.372,Forum,1.716,Bispebjerg,4.011,83.71559633027522
181," J.E. Ohlsens Gade 7, st. tv, 2100 København Ø",999000,1995-04-26, Ejerlejlighed ,5911,6,169,1903,"7, J.E. Ohlsens Gade, Indre Østerbro, Østerbro, København, Københavns Kommune, Region Hovedstaden, 2100, Danmark",55.701702000000004,12.578992,,,0.84423,Nordhavn,2.096,Nørreport,2.404,Bispebjerg,1.759,-9.329829172141922
182," Wibrandtsvej 57A, 2300 København S",1187450,1995-04-27, Villa ,10237,4,116,1990,"57A, Wibrandtsvej, København, Københavns Kommune, Region Hovedstaden, 2300, Danmark",55.647673,12.626485,,,4.65286,Dybbølsbro,0.792,Femøren,5.968,Carlsberg,5.613,57.48988477100352
183," Carstensgade 52, 1770 København V",1162000,1995-04-27, Rækkehus ,8803,6,132,1891,"52, Carstensgade, Carlsberg Byen, København, Københavns Kommune, Region Hovedstaden, 1770, Danmark",55.668576,12.537593,,,1.42326,Dybbølsbro,1.445,Frederiksberg,0.53,Carlsberg,2.874,32.38257556769762
184," Adelgade 49, 4. th, 1304 København K",566500,1995-04-28, Ejerlejlighed ,6994,3,81,1957,"49, Adelgade, Frederiksstaden, København, Københavns Kommune, Region Hovedstaden, 1304, Danmark",55.685334999999995,12.584378,,,0.79154,Østerport,0.67,Kongens Nytorv,3.565,Bispebjerg,0.913,4.819854924764709
185," Frydendalsvej 25, st, 1809 Frederiksberg C",1555000,1995-04-29, Ejerlejlighed ,8736,4,178,1900,"25, Frydendalsvej, Frederiksberg, Frederiksberg Kommune, Region Hovedstaden, 1809, Danmark",55.671677,12.535808,,,1.59972,Valby,1.083,Frederiksberg,0.867,Carlsberg,2.73,29.4580229594357
186," Sorrentovej 11, st. th, 2300 København S",328560,1995-04-30, Ejerlejlighed ,4978,3,66,1941,"11, Sorrentovej, København, Københavns Kommune, Region Hovedstaden, 2300, Danmark",55.658338,12.622861,,,4.06532,Dybbølsbro,0.518,Øresund,5.495,Carlsberg,4.585,-25.91857690647803
187," Borneovej 25, 2300 København S",876660,1995-04-30, Villa ,7758,6,113,1959,"25, Borneovej, København, Københavns Kommune, Region Hovedstaden, 2300, Danmark",55.645987,12.632994,,,5.1036,Dybbølsbro,0.345,Femøren,6.416,Carlsberg,6.021,13.887257780387552
188," Lersø Parkallé 37, 2. th, 2100 København Ø",554630,1995-05-01, Ejerlejlighed ,9401,2,59,1926,"37, Lersø Parkallé, Nørrebro, København, Københavns Kommune, Region Hovedstaden, 2100, Danmark",55.705039,12.55671,,,1.18609,Ryparken,2.593,Nørreport,0.958,Bispebjerg,2.205,36.53263363767512
189," Strandvejen 77A, st. th, 2100 København Ø",590000,1995-05-01, Ejerlejlighed ,6146,3,96,1883,"77A, Strandvejen, Indre Østerbro, Østerbro, København, Københavns Kommune, Region Hovedstaden, 2100, Danmark",55.719327,12.576384,,,0.43284,Svanemøllen,4.018,Nørreport,2.615,Bispebjerg,3.651,-10.143133537693778
190," Viborggade 43, st, 2100 København Ø",485000,1995-05-02, Villa ,2994,5,162,1869,"43, Viborggade, Indre Østerbro, Østerbro, København, Københavns Kommune, Region Hovedstaden, 2100, Danmark",55.70558199999999,12.582144,,,0.54732,Nordhavn,2.563,Nørreport,2.546,Bispebjerg,2.233,-55.19417354650437
191," Veronavej 6, 2300 København S",736540,1995-05-03, Villa ,5800,5,127,1923,"6, Veronavej, København, Københavns Kommune, Region Hovedstaden, 2300, Danmark",55.656898999999996,12.622065,,,4.05009,Dybbølsbro,0.611,Amager Strand,5.466,Carlsberg,4.661,-12.752653773447722
192," Sønderborggade 4, 3. th, 2100 København Ø",556080,1995-05-03, Ejerlejlighed ,5979,3,93,1893,"4, Sønderborggade, Ambassadekvarteret, Østerbro, København, Københavns Kommune, Region Hovedstaden, 2100, Danmark",55.69694200000001,12.584928,,,0.54981,Østerport,1.73,Nørreport,2.916,Bispebjerg,1.472,-9.66140023066889
193," Grønagervej 30, 2300 København S",740400,1995-05-04, Rækkehus ,7051,4,105,1957,"30, Grønagervej, København, Københavns Kommune, Region Hovedstaden, 2300, Danmark",55.640273,12.594612,,,3.55686,Dybbølsbro,0.775,Bella Center,4.525,Carlsberg,5.397,6.7023804119187
194," Nyelandsvej 86C, 2000 Frederiksberg",1586800,1995-05-07, Villa ,6347,8,250,1907,"86C, Nyelandsvej, Frederiksberg, Frederiksberg Kommune, Region Hovedstaden, 2000, Danmark",55.68599200000001,12.517352,,,0.5205,Grøndal,0.387,Lindevang,1.126,Flintholm,3.317,-6.577501275660401
195," Stavangergade 3, 2. th, 2100 København Ø",920533,1995-05-07, Ejerlejlighed ,5647,4,163,1932,"3, Stavangergade, Marmormolen, Frederiksstaden, København, Københavns Kommune, Region Hovedstaden, 2100, Danmark",55.695060999999995,12.589585000000001,,,0.34218,Østerport,1.725,Nørreport,3.266,Bispebjerg,1.539,-16.79191347655675
196," Bodenhoffs Plads 10, 5. tv, 1430 København K",224093,1995-05-08, Ejerlejlighed ,3028,3,74,1901,"10, Bodenhoffs Plads, Margretheholm, Christianshavn, København, Københavns Kommune, Region Hovedstaden, 1430, Danmark",55.676244999999994,12.599160000000001,,,1.90109,Nørreport,0.945,Kongens Nytorv,4.199,Carlsberg,2.17,-54.64055485926288
197," Gothersgade 87, 2. tv, 1123 København K",969000,1995-05-08, Ejerlejlighed ,12266,2,79,1700,"87, Gothersgade, Frederiksstaden, København, Københavns Kommune, Region Hovedstaden, 1123, Danmark",55.683313,12.577932,,,0.39411,Nørreport,0.394,Nørreport,3.406,Carlsberg,0.623,75.4667048136757
198," Andreas Bjørns Gade 1, kl. th, 1428 København K",20000,1995-05-08, Fritidshus ,435,1,0,1905,"1, Andreas Bjørns Gade, Margretheholm, Christianshavn, København, Københavns Kommune, Region Hovedstaden, 1428, Danmark",55.6754,12.596978,,,1.82087,Nørreport,0.863,Kongens Nytorv,4.039,Carlsberg,2.111,-93.61876913146803
199," Backersvej 124, 2300 København S",592050,1995-05-08, Villa ,5382,5,110,1928,"124, Backersvej, København, Københavns Kommune, Region Hovedstaden, 2300, Danmark",55.649853,12.626197,,,4.53904,Dybbølsbro,0.777,Amager Strand,5.882,Carlsberg,5.415,-20.71808419222894
200," Wiedeweltsgade 39, 2100 København Ø",1070064,1995-05-08, Rækkehus ,7926,5,135,1879,"39, Wiedeweltsgade, Kartoffelrækkerne, Østerbro, København, Københavns Kommune, Region Hovedstaden, 2100, Danmark",55.690842,12.573346,,,0.84263,Nørreport,0.843,Nørreport,2.639,Bispebjerg,0.503,16.8463572123559
201," Gammel Kongevej 90, 3. tv, 1850 Frederiksberg C",1081000,1995-05-08, Ejerlejlighed ,5051,6,214,1906,"90, Gammel Kongevej, Frederiksberg, Frederiksberg Kommune, Region Hovedstaden, 1850, Danmark",55.675166000000004,12.547682,,,0.94215,Vesterport,0.8,Forum,1.451,Carlsberg,1.908,-24.517681283592943
202," Vesterbrogade 178, 5. tv, 1800 Frederiksberg C",220000,1995-05-09, Ejerlejlighed ,1732,3,127,1910,"178, Vesterbrogade, Frederiksberg, Frederiksberg Kommune, Region Hovedstaden, 1800, Danmark",55.670565,12.536369,,,1.56684,Dybbølsbro,1.212,Frederiksberg,0.743,Carlsberg,2.781,-73.45892160268068
203," Sprogøvej 17, 4. th, 2000 Frederiksberg",510000,1995-05-10, Ejerlejlighed ,5543,3,92,1982,"17, Sprogøvej, Frederiksberg, Frederiksberg Kommune, Region Hovedstaden, 2000, Danmark",55.68252800000001,12.527874,,,1.18284,Grøndal,0.301,Fasanvej,1.826,Flintholm,2.695,-14.715204480413572
204," Tesdorpfsvej 68, 2000 Frederiksberg",1889130,1995-05-10, Villa ,11245,4,168,1917,"68, Tesdorpfsvej, Frederiksberg, Frederiksberg Kommune, Region Hovedstaden, 2000, Danmark",55.686043999999995,12.511322999999999,,,0.56848,Grøndal,0.308,Lindevang,0.748,Flintholm,3.696,68.66656667166642
205," C.F. Richs Vej 100, 3. tv, 2000 Frederiksberg",428200,1995-05-10, Ejerlejlighed ,5866,3,73,1936,"C.F. Richs Vej, Frederiksberg, Frederiksberg Kommune, Region Hovedstaden, 2000, Danmark",55.68749739999999,12.5098524,,,0.49456,Grøndal,0.493,Lindevang,0.68,Flintholm,3.789,-10.687731870340384
206," Kastanievej 8, 1876 Frederiksberg C",1910498,1995-05-10, Villa ,10917,7,175,1897,"8, Kastanievej, Frederiksberg, Frederiksberg Kommune, Region Hovedstaden, 1876, Danmark",55.677802,12.544669,,,1.13276,Vesterport,0.673,Forum,1.64,Carlsberg,1.882,60.08113788552715
207," Aksel Møllers Have 28, 2. tv, 2000 Frederiksberg",582500,1995-05-11, Ejerlejlighed ,8204,3,71,1946,"28, Aksel Møllers Have, Frederiksberg, Frederiksberg Kommune, Region Hovedstaden, 2000, Danmark",55.68512,12.531459,,,1.16907,Grøndal,0.44,Frederiksberg,2.015,Flintholm,2.435,20.14644862094216
208," Rahbeks Alle 18, 3. tv, 1801 Frederiksberg C",915000,1995-05-13, Ejerlejlighed ,8632,3,106,1904,"18, Rahbeks Allé, Frederiksberg, Frederiksberg Kommune, Region Hovedstaden, 1801, Danmark",55.669489,12.534627,,,1.41485,Valby,1.312,Frederiksberg,0.63,Carlsberg,2.942,25.5423637606473
209," Kastrupvej 134, 2. tv, 2300 København S",522000,1995-05-13, Ejerlejlighed ,4314,5,121,1938,"134, Kastrupvej, Kastrup, Tårnby Kommune, Region Hovedstaden, 2300, Danmark",55.648603,12.621327,,,4.31495,Dybbølsbro,1.059,Amager Strand,5.627,Carlsberg,5.331,-36.89015024064836
210," Fridtjof Nansens Plads 3, 2. th, 2100 København Ø",1441400,1995-05-14, Ejerlejlighed ,6930,5,208,1931,"3, Fridtjof Nansens Plads, Marmormolen, Frederiksstaden, København, Københavns Kommune, Region Hovedstaden, 2100, Danmark",55.696201,12.590314999999999,,,0.47704,Østerport,1.851,Nørreport,3.262,Bispebjerg,1.653,3.8186693832302083
211," Fredensgade 13, 1. th, 2200 København N",165000,1995-05-14, Ejerlejlighed ,2260,4,73,1877,"13, Fredensgade, Indre Østerbro, Østerbro, København, Københavns Kommune, Region Hovedstaden, 2200, Danmark",55.692855,12.567276,,,1.09548,Nørreport,1.095,Nørreport,2.205,Bispebjerg,0.705,-65.51408429212317
212," Bregnegangen 26, 2300 København S",220000,1995-05-15, Villa ,2933,2,75,2015,"26, Bregnegangen, Christianshavn, København, Københavns Kommune, Region Hovedstaden, 2300, Danmark",55.646489,12.594818,,,3.05512,Dybbølsbro,0.588,Sundby,4.172,Carlsberg,4.743,-53.517733943306325
213," H.C. Ørsteds Vej 27, 3. 23, 1879 Frederiksberg C",472000,1995-05-15, Ejerlejlighed ,5488,3,86,1968,"27, H.C. Ørsteds Vej, Frederiksberg, Frederiksberg Kommune, Region Hovedstaden, 1879, Danmark",55.679302,12.547533999999999,,,0.99582,Vesterport,0.428,Forum,1.86,Carlsberg,1.641,-11.475780044412662
214," Strandboulevarden 114, 1. th, 2100 København Ø",908000,1995-05-15, Ejerlejlighed ,5341,5,170,1906,"114, Strandboulevarden, Indre Østerbro, Østerbro, København, Københavns Kommune, Region Hovedstaden, 2100, Danmark",55.708541000000004,12.585612,,,0.48963,Nordhavn,2.94,Nørreport,2.773,Bispebjerg,2.618,-13.074377475180379
215," Luganovej 22, 2300 København S",780000,1995-05-16, Villa ,4815,4,162,1916,"22, Luganovej, Christianshavn, København, Københavns Kommune, Region Hovedstaden, 2300, Danmark",55.657996,12.618264,,,3.78965,Dybbølsbro,0.478,Lergravsparken,5.212,Carlsberg,4.407,-19.93193244239478
216," Sprogøvej 9, 4. tv, 2000 Frederiksberg",857435,1995-05-16, Ejerlejlighed ,8574,4,100,1982,"9, Sprogøvej, Frederiksberg, Frederiksberg Kommune, Region Hovedstaden, 2000, Danmark",55.682896,12.527874,,,1.15219,Grøndal,0.317,Fasanvej,1.818,Flintholm,2.688,39.78967962827097
217," Nordre Fasanvej 28, 2. th, 2000 Frederiksberg",508670,1995-05-16, Ejerlejlighed ,6782,3,75,1901,"28, Nordre Fasanvej, Frederiksberg, Frederiksberg Kommune, Region Hovedstaden, 2000, Danmark",55.682028,12.523242,,,1.06543,Grøndal,0.041,Fasanvej,1.556,Flintholm,2.992,11.162711919968975
218," Nordre Fasanvej 37A, st. th, 2000 Frederiksberg",487516,1995-05-16, Ejerlejlighed ,7500,2,65,1932,"37A, Nordre Fasanvej, Frederiksberg, Frederiksberg Kommune, Region Hovedstaden, 2000, Danmark",55.683062,12.523124000000001,,,0.96055,Grøndal,0.156,Fasanvej,1.521,Flintholm,2.981,24.22154498476215
219," Sorgenfrigade 9, 3. th, 2200 København N",308000,1995-05-17, Ejerlejlighed ,4968,2,62,1932,"9, Sorgenfrigade, Nørrebrogade Kronborggade jagtvej, Nørrebro, København, Københavns Kommune, Region Hovedstaden, 2200, Danmark",55.695533,12.545254,,,0.73054,Nørrebro,1.606,Forum,1.23,Bispebjerg,1.843,-17.176993609335923
220," Bryggervangen 16, st. th, 2100 København Ø",255000,1995-05-17, Ejerlejlighed ,4554,2,56,1934,"16, Bryggervangen, Indre Østerbro, Østerbro, København, Københavns Kommune, Region Hovedstaden, 2100, Danmark",55.709561,12.564745,,,0.73832,Ryparken,2.952,Nørreport,1.493,Bispebjerg,2.565,-24.73141975648724
221," Strandlodsvej 106, 2300 København S",1262196,1995-05-18, Villa ,8091,5,156,1924,"106, Strandlodsvej, København, Københavns Kommune, Region Hovedstaden, 2300, Danmark",55.6591,12.626353,,,4.26675,Dybbølsbro,0.319,Øresund,5.705,Carlsberg,4.69,32.061305433593944
222," Nørrebrogade 63, 2. tv, 2200 København N",705000,1995-05-19, Ejerlejlighed ,4796,5,147,1891,"63, Nørrebrogade, Nørrebro, København, Københavns Kommune, Region Hovedstaden, 2200, Danmark",55.690328,12.554602000000001,,,1.32607,Nørreport,0.962,Forum,1.964,Bispebjerg,1.052,-21.21258583491222
223," Caprivej 2, st. tv, 2300 København S",239000,1995-05-21, Ejerlejlighed ,4268,2,56,1937,"2, caprivej, Christianshavn, København, Københavns Kommune, Region Hovedstaden, 2300, Danmark",55.660681000000004,12.621147,,,3.91681,Dybbølsbro,0.315,Lergravsparken,5.364,Carlsberg,4.328,-28.801401284510803
224," Egebæksvej 15, 2100 København Ø",1025000,1995-05-22, Villa ,6288,6,163,1922,"15, Egebæksvej, Emdrup, København, Københavns Kommune, Region Hovedstaden, 2100, Danmark",55.721073,12.55218,,,0.69797,Emdrup,4.377,Nørreport,1.763,Bispebjerg,3.986,4.930580277678882
225," Bregnegangen 43, 2300 København S",260000,1995-05-22, Villa ,3467,3,75,1940,"43, Bregnegangen, Christianshavn, København, Københavns Kommune, Region Hovedstaden, 2300, Danmark",55.646825,12.596978,,,3.1309,Dybbølsbro,0.729,Sundby,4.277,Carlsberg,4.754,-41.43449176783261
226," Nygårdsvej 41A, 1. tv, 2100 København Ø",407880,1995-05-22, Ejerlejlighed ,5367,2,76,1969,"41A, Nygårdsvej, Indre Østerbro, Østerbro, København, Københavns Kommune, Region Hovedstaden, 2100, Danmark",55.711602,12.570685000000001,,,0.63904,Svanemøllen,3.148,Nørreport,1.914,Bispebjerg,2.77,-10.517686942507012
227," Toldbodgade 38B, 4. tv, 1253 København K",4000000,1995-05-23, Ejerlejlighed ,20101,5,199,1778,"38B, Toldbodgade, Frederiksstaden, København, Københavns Kommune, Region Hovedstaden, 1253, Danmark",55.685607999999995,12.596861,,,0.94282,Østerport,1.014,Kongens Nytorv,4.171,Bispebjerg,1.69,221.15353890397827
228," Strandlodsvej 100, 2300 København S",995000,1995-05-24, Villa ,8652,4,115,1928,"100, Strandlodsvej, København, Københavns Kommune, Region Hovedstaden, 2300, Danmark",55.659523,12.625891000000001,,,4.23065,Dybbølsbro,0.294,Øresund,5.671,Carlsberg,4.637,32.43735553888779
229," Clematisvej 24, 2300 København S",586500,1995-05-25, Villa ,5284,4,111,1922,"24, Clematisvej, København, Københavns Kommune, Region Hovedstaden, 2300, Danmark",55.643793,12.61143,,,4.05343,Dybbølsbro,1.625,Sundby,5.243,Carlsberg,5.442,-19.07661992250713
230," Rantzausgade 52, 5. th, 2200 København N",210000,1995-05-25, Ejerlejlighed ,4565,2,46,1889,"Nihao Yao, 52, Rantzausgade, Sorte Hest, Nørrebro, København, Københavns Kommune, Region Hovedstaden, 1960, Danmark",55.687449300000004,12.547363800000001,,,1.55658,Vesterport,0.72,Forum,2.139,Bispebjerg,1.431,-28.867489404138624
231," Krusågade 35, 4. tv, 1719 København V",362920,1995-05-26, Ejerlejlighed ,4078,3,89,1908,"35, Krusågade, Kødbyen, Vesterbro, København, Københavns Kommune, Region Hovedstaden, 1719, Danmark",55.665178000000004,12.556657000000001,,,0.17577,Dybbølsbro,1.806,Islands Brygge,1.301,Carlsberg,2.543,-36.133225444389346
232," Aksel Møllers Have 26, 6. tv, 2000 Frederiksberg",406800,1995-05-26, Ejerlejlighed ,6669,2,61,1946,"26, Aksel Møllers Have, Frederiksberg, Frederiksberg Kommune, Region Hovedstaden, 2000, Danmark",55.685007999999996,12.531571000000001,,,1.18157,Grøndal,0.427,Frederiksberg,2.023,Flintholm,2.429,1.8209392748814164
233," Dag Hammarskjölds Allé 1A, 2, 2100 København Ø",1600000,1995-05-26, Ejerlejlighed ,6299,7,254,1882,"1A, Dag Hammarskjölds Allé, Indre Østerbro, Frederiksstaden, København, Københavns Kommune, Region Hovedstaden, 2100, Danmark",55.693205000000006,12.584331,,,0.22735,Østerport,1.357,Nørreport,3.058,Bispebjerg,1.151,-4.196747242050617
234," C.F. Richs Vej 118, 3. th, 2000 Frederiksberg",358695,1995-05-28, Ejerlejlighed ,5518,3,65,1937,"C.F. Richs Vej, Frederiksberg, Frederiksberg Kommune, Region Hovedstaden, 2000, Danmark",55.68749739999999,12.5098524,,,0.49456,Grøndal,0.493,Lindevang,0.68,Flintholm,3.789,-13.56561421462921
235," Tagensvej 96, 3. tv, 2200 København N",367939,1995-05-28, Ejerlejlighed ,4599,4,80,1909,"96, Tagensvej, Nørrebro, København, Københavns Kommune, Region Hovedstaden, 2200, Danmark",55.70294000000001,12.548724,,,0.73764,Nørrebro,2.373,Forum,0.587,Bispebjerg,2.25,-27.481156769371474
236," Sundholmsvej 25, 3. th, 2300 København S",348000,1995-05-29, Ejerlejlighed ,5898,2,59,1914,"25, Sundholmsvej, Christianshavn, København, Københavns Kommune, Region Hovedstaden, 2300, Danmark",55.662372999999995,12.596229,,,2.33745,Dybbølsbro,0.437,Amagerbro,3.787,Carlsberg,3.172,-4.478095392339461
237," Holsteinsgade 57, st. tv, 2100 København Ø",717000,1995-05-30, Ejerlejlighed ,4979,5,144,1904,"57, Holsteinsgade, Marmormolen, Østerbro, København, Københavns Kommune, Region Hovedstaden, 2100, Danmark",55.700131000000006,12.589003,,,0.58446,Nordhavn,2.165,Nørreport,3.057,Bispebjerg,1.909,-17.933080599967035
238," Strandvejen 71B, st. tv, 2100 København Ø",803800,1995-05-31, Ejerlejlighed ,8373,2,96,1943,"71B, Strandvejen, Indre Østerbro, Østerbro, København, Københavns Kommune, Region Hovedstaden, 2100, Danmark",55.71866800000001,12.576601,,,0.35838,Svanemøllen,3.946,Nørreport,2.587,Bispebjerg,3.58,38.20556695699061
239," Hattensens Alle 13, 2000 Frederiksberg",1600000,1995-05-31, Villa ,5970,6,268,1923,"13, Hattensens Alle, Frederiksberg, Frederiksberg Kommune, Region Hovedstaden, 2000, Danmark",55.677845,12.506513,,,0.18406,Peter Bangs Vej,0.752,Lindevang,0.892,KB Hallen,4.119,-2.348329125933033
240," Vagtelvej 51, 3. tv, 2000 Frederiksberg",746000,1995-06-01, Ejerlejlighed ,6972,4,107,1969,"51, Vagtelvej, Frederiksberg, Frederiksberg Kommune, Region Hovedstaden, 2000, Danmark",55.693111,12.521971,,,0.3813,Fuglebakken,1.209,Lindevang,1.632,Flintholm,3.108,14.015339413133903
241," Rønnegade 10, 5. th, 2100 København Ø",181117,1995-06-01, Ejerlejlighed ,2058,3,88,1979,"10, Rønnegade, Nørrebro, København, Københavns Kommune, Region Hovedstaden, 2100, Danmark",55.707304,12.55776,,,0.92694,Ryparken,2.808,Nørreport,1.017,Bispebjerg,2.419,-66.30777038641833
242," Olufsvej 9, 2100 København Ø",530000,1995-06-01, Rækkehus ,3011,7,176,1887,"9, Olufsvej, Indre Østerbro, Østerbro, København, Københavns Kommune, Region Hovedstaden, 2100, Danmark",55.70086800000001,12.576535,,,1.02428,Nordhavn,1.976,Nørreport,2.277,Bispebjerg,1.626,-50.726851220510014
243," Carstensgade 11, 1770 København V",1430000,1995-06-01, Rækkehus ,7944,7,180,1887,"11, Carstensgade, Carlsberg Byen, København, Københavns Kommune, Region Hovedstaden, 1770, Danmark",55.668705,12.538812,,,1.35327,Dybbølsbro,1.451,Frederiksberg,0.562,Carlsberg,2.809,28.28007169732104
244," Kongelundsvej 132, 2300 København S",710000,1995-06-01, Villa ,7100,5,100,1959,"132, Kongelundsvej, København, Københavns Kommune, Region Hovedstaden, 2300, Danmark",55.632144999999994,12.587512,,,4.03503,Sydhavn,0.657,Ørestad,4.792,Carlsberg,6.175,13.57577050229285
245," Lykkesholms Allé 26, st. th, 1902 Frederiksberg C",855961,1995-06-01, Ejerlejlighed ,6584,4,130,1906,"26, Lykkesholms Alle, Frederiksberg, Frederiksberg Kommune, Region Hovedstaden, 1902, Danmark",55.678288,12.548896000000001,,,0.88158,Vesterport,0.456,Forum,1.794,Carlsberg,1.63,4.337353216170385
246," Dronningens Tværgade 6, 2, 1302 København K",1160000,1995-06-02, Ejerlejlighed ,3069,10,199,1839,"6, Dronningens Tværgade, Frederiksstaden, København, Københavns Kommune, Region Hovedstaden, 1302, Danmark",55.683436,12.588198,,,0.97921,Østerport,0.495,Kongens Nytorv,3.885,Bispebjerg,1.197,-49.90859828948228
247," Rodosvej 59, 2300 København S",136000,1995-06-05, Villa ,680,5,200,1902,"59, Rodosvej, København, Københavns Kommune, Region Hovedstaden, 2300, Danmark",55.651676,12.618905999999999,,,4.03739,Dybbølsbro,0.943,Amager Strand,5.386,Carlsberg,4.967,-88.52010669547894
248," Overgaden Oven Vandet 54A, 1, 1415 København K",690720,1995-06-05, Ejerlejlighed ,11512,3,60,1745,"54A, Overgaden Oven Vandet, Christianshavn, København, Københavns Kommune, Region Hovedstaden, 1415, Danmark",55.673987,12.594177,,,1.75732,Nørreport,0.822,Kongens Nytorv,3.823,Carlsberg,2.076,90.05690260519278
249," Burmeistersgade 1C, 3. th, 1429 København K",287800,1995-06-06, Ejerlejlighed ,3889,3,74,1901,"1C, Burmeistersgade, Margretheholm, Christianshavn, København, Københavns Kommune, Region Hovedstaden, 1429, Danmark",55.675103,12.597874000000001,,,1.8862,Nørreport,0.928,Kongens Nytorv,4.082,Carlsberg,2.175,-35.411188307913754
250," Godthåbsvænget 13, 4. tv, 2000 Frederiksberg",693000,1995-06-06, Ejerlejlighed ,6861,3,101,1972,"13, Godthåbsvænget, Frederiksberg, Frederiksberg Kommune, Region Hovedstaden, 2000, Danmark",55.690753,12.519733,,,0.26364,Grøndal,0.911,Lindevang,1.389,Flintholm,3.198,12.511069082004134
251," Frederiksgade 8, 2. tv, 1265 København K",936230,1995-06-06, Ejerlejlighed ,6200,5,151,1884,"8, Frederiksgade, Frederiksstaden, København, Københavns Kommune, Region Hovedstaden, 1265, Danmark",55.684652,12.589007,,,0.84815,Østerport,0.64,Kongens Nytorv,3.836,Bispebjerg,1.213,2.7334839354656904
252," Strandboulevarden 31, 2. tv, 2100 København Ø",658740,1995-06-07, Ejerlejlighed ,7008,4,94,1899,"31, Strandboulevarden, Indre Østerbro, Østerbro, København, Københavns Kommune, Region Hovedstaden, 2100, Danmark",55.700506999999995,12.589197,,,0.54103,Nordhavn,2.207,Nørreport,3.059,Bispebjerg,1.95,14.720374543688584
253," Ceresvej 17, 1863 Frederiksberg C",1430000,1995-06-07, Villa ,4441,8,322,1890,"17, Ceresvej, Frederiksberg, Frederiksberg Kommune, Region Hovedstaden, 1863, Danmark",55.680389,12.537464,,,1.63677,Vesterport,0.342,Frederiksberg,1.839,Carlsberg,2.169,-27.36976384133976
254," Bianco Lunos Alle 7, 4. th, 1868 Frederiksberg C",375000,1995-06-07, Ejerlejlighed ,5068,3,74,1884,"7, Bianco Lunos Alle, Frederiksberg, Frederiksberg Kommune, Region Hovedstaden, 1868, Danmark",55.67774300000001,12.540436999999999,,,1.39619,Vesterport,0.644,Frederiksberg,1.566,Carlsberg,2.115,-16.560565482723803
255," Overgaden Oven Vandet 28, st, 1415 København K",1021653,1995-06-08, Ejerlejlighed ,7740,3,132,1730,"28, Overgaden Oven Vandet, Christianshavn, København, Københavns Kommune, Region Hovedstaden, 1415, Danmark",55.671266,12.589396,,,1.74618,Nørreport,0.922,Islands Brygge,3.452,Carlsberg,2.107,24.511365281598373
256," Steen Blichers Vej 2, 1. tv, 2000 Frederiksberg",872000,1995-06-08, Ejerlejlighed ,6556,5,133,1889,"2, Steen Blichers Vej, Frederiksberg, Frederiksberg Kommune, Region Hovedstaden, 2000, Danmark",55.679078000000004,12.525961,,,1.41062,Peter Bangs Vej,0.332,Fasanvej,1.808,Carlsberg,2.902,4.796513176824134
257," H.C. Ørsteds Vej 10, 3. th, 1879 Frederiksberg C",1134500,1995-06-08, Ejerlejlighed ,6132,6,185,1938,"10, H.C. Ørsteds Vej, Frederiksberg, Frederiksberg Kommune, Region Hovedstaden, 1879, Danmark",55.676551,12.546166,,,1.02778,Vesterport,0.713,Forum,1.545,Carlsberg,1.883,5.901248639966838
258," Vordingborggade 98, 3. tv, 2100 København Ø",413000,1995-06-11, Ejerlejlighed ,5900,3,70,1905,"98, Vordingborggade, Indre Østerbro, Østerbro, København, Københavns Kommune, Region Hovedstaden, 2100, Danmark",55.708523,12.588308999999999,,,0.39462,Nordhavn,2.993,Nørreport,2.942,Bispebjerg,2.684,3.5348069982510237
259," Sølvgade 101, 5, 1307 København K",841100,1995-06-12, Ejerlejlighed ,6675,4,126,1882,"101, Sølvgade, Indre Østerbro, Østerbro, København, Københavns Kommune, Region Hovedstaden, 1307, Danmark",55.690256999999995,12.572215,,,0.77163,Nørreport,0.772,Nørreport,2.63,Bispebjerg,0.416,16.189337851324066
260," Landskronagade 61, 3. tv, 2100 København Ø",315200,1995-06-12, Ejerlejlighed ,4378,3,72,1926,"61, Landskronagade, Indre Østerbro, Østerbro, København, Københavns Kommune, Region Hovedstaden, 2100, Danmark",55.71267099999999,12.568108,,,0.6172,Ryparken,3.274,Nørreport,1.803,Bispebjerg,2.891,-23.71094498754073
261," Rosenvængets Sideallé 3, 1. tv, 2100 København Ø",1254439,1995-06-13, Ejerlejlighed ,4862,8,258,1901,"3, Rosenvængets Sideallé, Indre Østerbro, Østerbro, København, Københavns Kommune, Region Hovedstaden, 2100, Danmark",55.699993000000006,12.582536,,,0.78634,Nordhavn,1.977,Nørreport,2.666,Bispebjerg,1.672,-15.661048310156403
262," Østerbrogade 45, 4. th, 2100 København Ø",650000,1995-06-13, Ejerlejlighed ,5856,3,111,1970,"45, Østerbrogade, Indre Østerbro, Østerbro, København, Københavns Kommune, Region Hovedstaden, 2100, Danmark",55.700727,12.577149,,,0.99845,Nordhavn,1.967,Nørreport,2.318,Bispebjerg,1.621,2.0612088397276467
263," Fyensgade 7, 1. tv, 2200 København N",382000,1995-06-13, Ejerlejlighed ,5701,3,67,1899,"7, Fyensgade, Nørrebro, København, Københavns Kommune, Region Hovedstaden, 2200, Danmark",55.694276,12.550229,,,1.04965,Nørrebro,1.404,Forum,1.452,Bispebjerg,1.505,-0.29381930112980836
264," Asgårdsvej 15, 1811 Frederiksberg C",970000,1995-06-13, Villa ,5160,6,188,1893,"15, Asgårdsvej, Frederiksberg, Frederiksberg Kommune, Region Hovedstaden, 1811, Danmark",55.67266899999999,12.536883,,,1.64093,Dybbølsbro,0.993,Frederiksberg,0.979,Carlsberg,2.609,-9.5667616955648
265," Hamletsgade 8, 1. 71, 2200 København N",175000,1995-06-14, Ejerlejlighed ,3977,1,44,1975,"8, Hamletsgade, Nørrebro, København, Københavns Kommune, Region Hovedstaden, 2200, Danmark",55.702275,12.546265,,,0.56692,Nørrebro,2.322,Forum,0.542,Bispebjerg,2.289,-30.045616051221312
266," Carit Etlars Vej 24, 4. th, 1814 Frederiksberg C",945256,1995-06-14, Ejerlejlighed ,10164,3,93,1980,"24, Carit Etlars Vej, Frederiksberg, Frederiksberg Kommune, Region Hovedstaden, 1814, Danmark",55.671789000000004,12.540744,,,1.38211,Dybbølsbro,1.176,Frederiksberg,0.927,Carlsberg,2.484,74.4194028143233
267," Kastrupvej 84, 3. th, 2300 København S",118947,1995-06-14, Ejerlejlighed ,2287,2,52,1936,"84, Kastrupvej, Kastrup, Tårnby Kommune, Region Hovedstaden, 2300, Danmark",55.653282,12.619238000000001,,,3.99339,Dybbølsbro,0.843,Amager Strand,5.364,Carlsberg,4.841,-60.140128276631344
268," Ramundsvej 35, 2300 København S",733000,1995-06-14, Rækkehus ,8055,3,91,1948,"35, Ramundsvej, København, Københavns Kommune, Region Hovedstaden, 2300, Danmark",55.653771,12.632796,,,4.79121,Dybbølsbro,0.27,Amager Strand,6.189,Carlsberg,5.389,40.64955474070194
269," Christian Winthers Vej 4C, 2. tv, 1860 Frederiksberg C",717000,1995-06-14, Ejerlejlighed ,6764,4,106,1950,"4C, Christian Winthers Vej, Frederiksberg, Frederiksberg Kommune, Region Hovedstaden, 1860, Danmark",55.680202,12.534802,,,1.67161,Grøndal,0.196,Frederiksberg,1.818,Carlsberg,2.334,17.56390350165698
270," Rådvadsvej 10, st. th, 2400 København NV",554000,1995-06-15, Ejerlejlighed ,7195,3,77,1920,"Dhaba NV, Rådvadsvej, Bellahøj, Utterslev, Bispebjerg, Københavns Kommune, Region Hovedstaden, 2400, Danmark",55.721563,12.529714,,,0.72494,Emdrup,4.367,Lindevang,1.849,Bispebjerg,4.635,24.89367980697461
271," Hammerensgade 3, 4. th, 1267 København K",1600000,1995-06-15, Ejerlejlighed ,6667,6,240,1925,"3, Hammerensgade, Frederiksstaden, København, Københavns Kommune, Region Hovedstaden, 1267, Danmark",55.688514,12.590586,,,0.4562,Østerport,1.077,Kongens Nytorv,3.664,Bispebjerg,1.306,12.722333686512313
272," Finsensvej 13B, 6. th, 2000 Frederiksberg",730000,1995-06-16, Ejerlejlighed ,7849,3,93,1969,"13B, Finsensvej, Frederiksberg, Frederiksberg Kommune, Region Hovedstaden, 2000, Danmark",55.68084399999999,12.519273,,,1.03302,Peter Bangs Vej,0.271,Fasanvej,1.365,Flintholm,3.262,29.184634122255503
273," Falkoner Alle 26B, 1. tv, 2000 Frederiksberg",940000,1995-06-16, Ejerlejlighed ,5697,6,165,1900,"26B, Falkoner Alle, Frederiksberg, Frederiksberg Kommune, Region Hovedstaden, 2000, Danmark",55.681068,12.534324,,,1.5841,Grøndal,0.133,Frederiksberg,1.916,Carlsberg,2.335,-5.064240363945403
274," Silkeborggade 30, 1. th, 2100 København Ø",839860,1995-06-16, Ejerlejlighed ,5915,5,142,1913,"30, Silkeborggade, Indre Østerbro, Østerbro, København, Københavns Kommune, Region Hovedstaden, 2100, Danmark",55.707327,12.584605999999999,,,0.45311,Nordhavn,2.793,Nørreport,2.701,Bispebjerg,2.469,-0.7783406582346368
275," Godthåbsvænget 35, st. th, 2000 Frederiksberg",737100,1995-06-17, Ejerlejlighed ,8472,3,87,1977,"35, Godthåbsvænget, Frederiksberg, Frederiksberg Kommune, Region Hovedstaden, 2000, Danmark",55.691872,12.520168,,,0.325,Grøndal,1.035,Lindevang,1.467,Flintholm,3.191,40.62966856636973
276," Amalievej 22, 2. th, 1875 Frederiksberg C",1033265,1995-06-18, Ejerlejlighed ,8136,5,127,1904,"22, Amalievej, Frederiksberg, Frederiksberg Kommune, Region Hovedstaden, 1875, Danmark",55.678461999999996,12.546868,,,1.01015,Vesterport,0.522,Forum,1.758,Carlsberg,1.725,31.36918249487343
277," Kaliforniensvej 19, 2300 København S",515000,1995-06-19, Villa ,7055,3,73,1938,"19, Kaliforniensvej, København, Københavns Kommune, Region Hovedstaden, 2300, Danmark",55.633177,12.592502,,,4.13576,Dybbølsbro,0.811,Bella Center,4.929,Carlsberg,6.127,10.135711758216594
278," Englandsvej 12A, st. tv, 2300 København S",382000,1995-06-20, Ejerlejlighed ,5536,2,69,1935,"12A, Englandsvej, Christianshavn, København, Københavns Kommune, Region Hovedstaden, 2300, Danmark",55.657545999999996,12.605958,,,3.05137,Dybbølsbro,0.675,Amagerbro,4.452,Carlsberg,3.956,-10.80366925175622
279," Platanvej 22A, 2. th, 1810 Frederiksberg C",850000,1995-06-21, Ejerlejlighed ,8173,3,104,1970,"22A, Platanvej, Sorte Hest, København, Københavns Kommune, Region Hovedstaden, 1810, Danmark",55.671645,12.538931,,,1.47267,Dybbølsbro,1.144,Frederiksberg,0.882,Carlsberg,2.58,28.722175556488878
280," Frederik VIs Alle 10, 1. tv, 2000 Frederiksberg",1154000,1995-06-21, Ejerlejlighed ,8677,4,133,1905,"10, Frederik VI's Alle, Frederiksberg, Frederiksberg Kommune, Region Hovedstaden, 2000, Danmark",55.677088,12.530382000000001,,,1.68763,Peter Bangs Vej,0.472,Frederiksberg,1.513,Carlsberg,2.717,35.36943046137205
281," Sølvgade 103, 3. tv, 1307 København K",604800,1995-06-22, Ejerlejlighed ,5449,4,111,1882,"Søhesten, 103, Sølvgade, Indre Østerbro, Østerbro, København, Københavns Kommune, Region Hovedstaden, 1307, Danmark",55.6903189,12.5720729,,,0.77817,Nørreport,0.778,Nørreport,2.618,Bispebjerg,0.42,-14.657130178287083
282," Backersvej 142, 2300 København S",1100000,1995-06-22, Ejerlejlighed ,9565,5,115,1935,"142, Backersvej, København, Københavns Kommune, Region Hovedstaden, 2300, Danmark",55.647732,12.627367999999999,,,4.70059,Dybbølsbro,0.742,Femøren,6.019,Carlsberg,5.643,47.834643640972274
283," Gammel Kongevej 31, 2. tv, 1610 København V",779835,1995-06-23, Ejerlejlighed ,4261,5,183,1908,"Jupiter Cykler, 31, Gammel Kongevej, Frederiksberg Kommune, Region Hovedstaden, 1610, Danmark",55.6734238,12.5542471,,,0.61529,Vesterport,0.932,Forum,1.559,Carlsberg,1.784,-34.08174420643351
284," Birkegade 11, st. tv, 2200 København N",576000,1995-06-23, Ejerlejlighed ,6857,4,84,1892,"Urban Room, 11, Birkegade, Nørrebro, København, Københavns Kommune, Region Hovedstaden, 1635, Danmark",55.6913031,12.5586424,,,1.20763,Nørreport,1.126,Forum,1.99,Bispebjerg,0.881,5.109063874794981
285," Sankt Jakobs Gade 7, st. tv, 2100 København Ø",697000,1995-06-25, Ejerlejlighed ,3809,5,183,1907,"7, Sankt Jakobs Gade, Indre Østerbro, Østerbro, København, Københavns Kommune, Region Hovedstaden, 2100, Danmark",55.70295400000001,12.579419,,,0.76282,Nordhavn,2.238,Nørreport,2.404,Bispebjerg,1.9,-40.416101783293364
286," Strandboulevarden 62B, 4. tv, 2100 København Ø",843400,1995-06-26, Ejerlejlighed ,7087,4,119,1907,"62B, Strandboulevarden, Indre Østerbro, Østerbro, København, Københavns Kommune, Region Hovedstaden, 2100, Danmark",55.702718000000004,12.588499,,,0.32056,Nordhavn,2.404,Nørreport,2.972,Bispebjerg,2.124,10.555298448866678
287," Gothersgade 155, 2. tv, 1123 København K",887970,1995-06-26, Ejerlejlighed ,5920,5,150,1877,"155, Gothersgade, Vesterbro, København, Københavns Kommune, Region Hovedstaden, 1123, Danmark",55.685722999999996,12.568696000000001,,,0.32512,Nørreport,0.325,Nørreport,2.861,Bispebjerg,0.141,-7.547670732278672
288," Kong Georgs Vej 51, 5. th, 2000 Frederiksberg",625000,1995-06-27, Ejerlejlighed ,7911,2,79,1963,"51, Kong Georgs Vej, Frederiksberg, Frederiksberg Kommune, Region Hovedstaden, 2000, Danmark",55.688435,12.532934,,,0.85777,Fuglebakken,0.807,Frederiksberg,2.073,Bispebjerg,2.344,22.265725619494106
289," Vibekegade 27, st. tv, 2100 København Ø",509395,1995-06-27, Ejerlejlighed ,7383,2,69,1926,"27, Vibekegade, Nørrebro, København, Københavns Kommune, Region Hovedstaden, 2100, Danmark",55.704861,12.556286,,,1.21013,Ryparken,2.583,Forum,0.935,Bispebjerg,2.197,13.690726729562977
290," Sorrentovej 32, 2300 København S",1486000,1995-06-27, Villa ,8210,6,181,1937,"32, Sorrentovej, København, Københavns Kommune, Region Hovedstaden, 2300, Danmark",55.657213,12.626287,,,4.30165,Dybbølsbro,0.36,Amager Strand,5.724,Carlsberg,4.828,23.986911653662215
291," Safirgangen 105, 2300 København S",320000,1995-06-28, Villa ,2883,4,111,1967,"105, Safirgangen, Christianshavn, København, Københavns Kommune, Region Hovedstaden, 2300, Danmark",55.64530799999999,12.589291000000001,,,2.91084,Dybbølsbro,0.223,Sundby,3.935,Carlsberg,4.767,-56.02300288298733
292," Dronningensgade 42, 2. 4, 1420 København K",220000,1995-06-28, Ejerlejlighed ,4074,1,54,1962,"Grillen Burger Bar, 42, Dronningensgade, Christianshavn, København, Københavns Kommune, Region Hovedstaden, 1420, Danmark",55.671538899999994,12.5914119,,,1.8076,Nørreport,0.953,Kongens Nytorv,3.583,Carlsberg,2.159,-37.28737896956729
293," Vagtelvej 65, 4. tv, 2000 Frederiksberg",532000,1995-06-28, Ejerlejlighed ,6333,3,84,1969,"65, Vagtelvej, Frederiksberg, Frederiksberg Kommune, Region Hovedstaden, 2000, Danmark",55.693569999999994,12.523147999999999,,,0.29174,Fuglebakken,1.289,Lindevang,1.722,Flintholm,3.048,-2.828852143759496
294," Kastrupvej 17, 2300 København S",735820,1995-06-28, Rækkehus ,4303,8,171,1899,"17, Kastrupvej, Kastrup, Tårnby Kommune, Region Hovedstaden, 2300, Danmark",55.65961899999999,12.614916000000001,,,3.54752,Dybbølsbro,0.317,Lergravsparken,4.982,Carlsberg,4.131,-33.68573542103317
295," Sundholmsvej 111, 1. tv, 2300 København S",178200,1995-06-29, Ejerlejlighed ,3240,2,55,1939,"111, Sundholmsvej, Christianshavn, København, Københavns Kommune, Region Hovedstaden, 2300, Danmark",55.65736500000001,12.605217,,,3.0125,Dybbølsbro,0.683,Amagerbro,4.41,Carlsberg,3.946,-49.87804689393432
296," Caprivej 9, 3. tv, 2300 København S",265000,1995-06-29, Ejerlejlighed ,4569,2,58,1932,"9, Caprivej, Christianshavn, København, Københavns Kommune, Region Hovedstaden, 2300, Danmark",55.660945,12.622063,,,3.97028,Dybbølsbro,0.352,Lergravsparken,5.419,Carlsberg,4.352,-27.218953762504515
297," Snorresgade 8, 4. tv, 2300 København S",586400,1995-06-30, Ejerlejlighed ,6238,3,94,1913,"8, Snorresgade, Kødbyen, Christianshavn, København, Københavns Kommune, Region Hovedstaden, 2300, Danmark",55.665510999999995,12.576114,,,1.04935,Dybbølsbro,0.619,Islands Brygge,2.524,Carlsberg,2.392,-2.6747034319206593
298," Holsteinsgade 44, 2. th, 2100 København Ø",525310,1995-06-30, Ejerlejlighed ,6485,4,81,1896,"44, Holsteinsgade, Indre Østerbro, Østerbro, København, Københavns Kommune, Region Hovedstaden, 2100, Danmark",55.699348,12.586691,,,0.70971,Nordhavn,2.018,Nørreport,2.937,Bispebjerg,1.751,2.011923675889944
299," Hollands Allé 23, 2300 København S",335000,1995-07-01, Rækkehus ,2863,5,117,1903,"23, Hollands Allé, København, Københavns Kommune, Region Hovedstaden, 2300, Danmark",55.649708999999994,12.615827000000001,,,3.9496,Dybbølsbro,1.226,Amager Strand,5.26,Carlsberg,5.027,-54.023296147999055
300," Aksel Møllers Have 14, 7. th, 2000 Frederiksberg",590000,1995-07-01, Ejerlejlighed ,7867,3,75,1944,"14, Aksel Møllers Have, Frederiksberg, Frederiksberg Kommune, Region Hovedstaden, 2000, Danmark",55.685664,12.532205000000001,,,1.12561,Fuglebakken,0.498,Frederiksberg,2.061,Flintholm,2.385,25.882741993983494
301," Palermovej 6, 2300 København S",1028000,1995-07-02, Villa ,8358,4,123,1922,"6, Palermovej, Christianshavn, København, Københavns Kommune, Region Hovedstaden, 2300, Danmark",55.66024,12.623341,,,4.06026,Dybbølsbro,0.368,Øresund,5.505,Carlsberg,4.464,32.54394079555967
302," Spiræavej 3, 2000 Frederiksberg",1459440,1995-07-03, Villa ,12368,3,118,1953,"Spiræavej, Frederiksberg Kommune, Region Hovedstaden, 2500, Danmark",55.6694243,12.5117426,,,0.53607,Langgade,1.546,Fasanvej,1.2,Ålholm,4.144,91.55988311460345
303," Bjelkes Allé 4, 4. 4, 2200 København N",186033,1995-07-03, Ejerlejlighed ,3050,2,61,1970,"4, Bjelkes Allé, Nørrebrogade Kronborggade jagtvej, Nørrebro, København, Københavns Kommune, Region Hovedstaden, 2200, Danmark",55.69240500000001,12.545907000000001,,,1.04152,Nørrebro,1.263,Forum,1.58,Bispebjerg,1.646,-52.106026265787996
304," Egebæksvej 1B, 2100 København Ø",957793,1995-07-03, Villa ,8552,4,112,1924,"1B, Egebæksvej, Emdrup, København, Københavns Kommune, Region Hovedstaden, 2100, Danmark",55.719575,12.551289,,,0.64886,Emdrup,4.212,Forum,1.588,Bispebjerg,3.843,32.46318745998637
305," Belfastvej 13A, 2300 København S",631000,1995-07-03, Ejerlejlighed ,7602,4,83,1979,"13A, Belfastvej, København, Københavns Kommune, Region Hovedstaden, 2300, Danmark",55.639770999999996,12.606899,,,4.12173,Dybbølsbro,1.463,Sundby,5.203,Carlsberg,5.718,18.27979296109204
306," Kronprinsensvej 6B, 2000 Frederiksberg",2000000,1995-07-03, Villa ,12500,4,160,1886,"6B, Kronprinsensvej, Frederiksberg, Frederiksberg Kommune, Region Hovedstaden, 2000, Danmark",55.676666000000004,12.518864,,,0.97197,Peter Bangs Vej,0.624,Fasanvej,1.592,Flintholm,3.41,90.18348903021635
307," Frederiksberggade 5, 2, 1459 København K",1250000,1995-07-04, Ejerlejlighed ,10593,4,118,1920,"5, Frederiksberggade, Kødbyen, Vesterbro, København, Københavns Kommune, Region Hovedstaden, 1459, Danmark",55.677485,12.571798,,,0.59755,Vesterport,0.651,Nørreport,2.708,Carlsberg,1.034,58.32818509735147
308," Jagtvej 145, 3. 2, 2200 København N",200000,1995-07-04, Ejerlejlighed ,2778,2,72,1978,"Føtex Food, 145, Jagtvej, Nørrebro, København, Københavns Kommune, Region Hovedstaden, 2200, Danmark",55.6988792,12.5537337,,,1.02045,Nørrebro,1.908,Forum,1.129,Bispebjerg,1.699,-57.90016064013579
309," Landskronagade 58, st. tv, 2100 København Ø",35000,1995-07-05, Ejerlejlighed ,875,2,40,1902,"58, Landskronagade, Indre Østerbro, Østerbro, København, Københavns Kommune, Region Hovedstaden, 2100, Danmark",55.713119999999996,12.57137,,,0.5001,Svanemøllen,3.316,Nørreport,2.012,Bispebjerg,2.94,-86.2320360851778
310," Øresundsvej 112, 2. th, 2300 København S",217407,1995-07-05, Ejerlejlighed ,3507,2,62,1932,"112, Øresundsvej, Christianshavn, København, Københavns Kommune, Region Hovedstaden, 2300, Danmark",55.661319999999996,12.622798,,,4.01138,Dybbølsbro,0.368,Øresund,5.463,Carlsberg,4.359,-43.27996118389132
311," Rønnegade 26, 2. th, 2100 København Ø",581400,1995-07-05, Ejerlejlighed ,7454,3,78,1979,"26, Rønnegade, Nørrebro, København, Københavns Kommune, Region Hovedstaden, 2100, Danmark",55.706639,12.55739,,,1.0035,Ryparken,2.746,Nørreport,0.989,Bispebjerg,2.356,19.267180458145557
312," Fredensgade 13, 2. th, 2200 København N",443000,1995-07-08, Ejerlejlighed ,6068,3,73,1877,"13, Fredensgade, Indre Østerbro, Østerbro, København, Københavns Kommune, Region Hovedstaden, 2200, Danmark",55.692855,12.567276,,,1.09548,Nørreport,1.095,Nørreport,2.205,Bispebjerg,0.705,-1.064142001543491
313," Åboulevard 16, st. tv, 2200 København N",615000,1995-07-09, Ejerlejlighed ,5302,4,116,1896,"16, Åboulevard, Kødbyen, Vesterbro, København, Københavns Kommune, Region Hovedstaden, 2200, Danmark",55.683649,12.556052000000001,,,0.90438,Vesterport,0.295,Forum,2.533,Carlsberg,0.946,-14.039742973102962
314," Portlandsvej 32, 2300 København S",858060,1995-07-10, Villa ,7730,5,111,1940,"32, Portlandsvej, København, Københavns Kommune, Region Hovedstaden, 2300, Danmark",55.643104,12.600841,,,3.58959,Dybbølsbro,0.979,Sundby,4.686,Carlsberg,5.228,24.73643444210164
315," Prinsessegade 4A, 1. 58, 1422 København K",374492,1995-07-10, Ejerlejlighed ,7343,2,51,1975,"4A, Prinsessegade, Christianshavn, København, Københavns Kommune, Region Hovedstaden, 1422, Danmark",55.670424,12.591144,,,1.88872,Nørreport,0.874,Islands Brygge,3.539,Carlsberg,2.247,16.281156635663987
316," Soltoftevej 6, 2300 København S",606620,1995-07-10, Villa ,5321,4,114,1929,"6, Soltoftevej, København, Københavns Kommune, Region Hovedstaden, 2300, Danmark",55.642993000000004,12.596103,,,3.38834,Dybbølsbro,0.698,Sundby,4.436,Carlsberg,5.137,-14.945652173913043
317," Silkeborggade 49, 3. th, 2100 København Ø",495000,1995-07-10, Ejerlejlighed ,5964,3,83,1916,"49, Silkeborggade, Indre Østerbro, Østerbro, København, Københavns Kommune, Region Hovedstaden, 2100, Danmark",55.70777800000001,12.584292999999999,,,0.49653,Nordhavn,2.835,Nørreport,2.684,Bispebjerg,2.509,-4.689863842662626
318," Fuglebakkevej 41, 2000 Frederiksberg",1285000,1995-07-11, Villa ,9735,6,132,1929,"41, Fuglebakkevej, Frederiksberg, Frederiksberg Kommune, Region Hovedstaden, 2000, Danmark",55.69043900000001,12.525768,,,0.54169,Fuglebakken,0.989,Fasanvej,1.733,Flintholm,2.817,54.077067550171996
319," Holger Danskes Vej 27B, 1. tv, 2000 Frederiksberg",465570,1995-07-11, Ejerlejlighed ,7275,2,64,1902,"27B, Holger Danskes Vej, Frederiksberg, Frederiksberg Kommune, Region Hovedstaden, 2000, Danmark",55.686693999999996,12.536482000000001,,,1.13771,Fuglebakken,0.668,Frederiksberg,2.217,Bispebjerg,2.113,15.207981418918914
320," Strandvejen 63, 2. tv, 2100 København Ø",1259000,1995-07-11, Ejerlejlighed ,4787,8,263,1908,"63, Strandvejen, Indre Østerbro, Østerbro, København, Københavns Kommune, Region Hovedstaden, 2100, Danmark",55.717645,12.576902,,,0.24367,Svanemøllen,3.834,Nørreport,2.545,Bispebjerg,3.469,-22.79737873420171
321," Bispeengen 11, 3. th, 2000 Frederiksberg",335000,1995-07-11, Ejerlejlighed ,4136,3,81,1914,"Bispeengen, Frederiksberg, Frederiksberg Kommune, Region Hovedstaden, Danmark",55.69561985,12.5321801517627,,,0.34879,Fuglebakken,1.606,Frederiksberg,1.339,Bispebjerg,2.581,-33.74272440860789
322," Blegdamsvej 120, 2. tv, 2100 København Ø",368600,1995-07-12, Ejerlejlighed ,7372,2,50,1979,"120, Blegdamsvej, Indre Østerbro, Østerbro, København, Københavns Kommune, Region Hovedstaden, 2100, Danmark",55.698054000000006,12.575083,,,1.01551,Østerport,1.653,Nørreport,2.297,Bispebjerg,1.3,16.05306242391168
323," Helsingborggade 7, 1. tv, 2100 København Ø",784800,1995-07-13, Ejerlejlighed ,9455,3,83,1990,"7, Helsingborggade, Indre Østerbro, Østerbro, København, Københavns Kommune, Region Hovedstaden, 2100, Danmark",55.713575,12.570569,,,0.51965,Svanemøllen,3.368,Nørreport,1.985,Bispebjerg,2.99,46.44535081831794
324," Helsingborggade 5, st. th, 2100 København Ø",761000,1995-07-13, Ejerlejlighed ,9395,3,81,1990,"5, Helsingborggade, Indre Østerbro, Østerbro, København, Københavns Kommune, Region Hovedstaden, 2100, Danmark",55.713413,12.570631,,,0.52408,Svanemøllen,3.35,Nørreport,1.982,Bispebjerg,2.972,41.788491915767025
325," Jakob Dannefærds Vej 8, 5. th, 1973 Frederiksberg C",683000,1995-07-13, Ejerlejlighed ,9899,2,69,1885,"8, Jakob Dannefærds Vej, Kødbyen, Nørrebro, København, Københavns Kommune, Region Hovedstaden, 1973, Danmark",55.68367900000001,12.553883,,,0.97602,Vesterport,0.226,Forum,2.471,Carlsberg,1.073,44.55245058191889
326," Rådvadsvej 28, 2400 København NV",1239000,1995-07-13, Villa ,5986,8,207,1936,"Dhaba NV, Rådvadsvej, Bellahøj, Utterslev, Bispebjerg, Københavns Kommune, Region Hovedstaden, 2400, Danmark",55.721563,12.529714,,,0.72494,Emdrup,4.367,Lindevang,1.849,Bispebjerg,4.635,-13.18682381150354
327," Kastrupvej 1, 2. tv, 2300 København S",238000,1995-07-13, Ejerlejlighed ,4250,2,56,1914,"1, Kastrupvej, Kastrup, Tårnby Kommune, Region Hovedstaden, 2300, Danmark",55.660385999999995,12.614367,,,3.49919,Dybbølsbro,0.261,Lergravsparken,4.941,Carlsberg,4.045,-37.76541221262264
328," Wibrandtsvej 21, 2300 København S",680000,1995-07-13, Villa ,4277,4,159,1930,"21, Wibrandtsvej, København, Københavns Kommune, Region Hovedstaden, 2300, Danmark",55.646593,12.618603,,,4.26546,Dybbølsbro,1.251,Femøren,5.538,Carlsberg,5.412,-36.68768688752701
329," Vejlands Allé 61, 2300 København S",855000,1995-07-14, Villa ,4750,5,180,1927,"61, Vejlands Allé, København, Københavns Kommune, Region Hovedstaden, 2300, Danmark",55.642695999999994,12.606515,,,3.88595,Dybbølsbro,1.337,Sundby,5.021,Carlsberg,5.412,-30.334540867958292
330," Kochsvej 17, 2. th, 1812 Frederiksberg C",1046000,1995-07-18, Ejerlejlighed ,9423,5,111,1898,"17, Kochsvej, Frederiksberg, Frederiksberg Kommune, Region Hovedstaden, 1812, Danmark",55.67234200000001,12.537846,,,1.57026,Dybbølsbro,1.047,Frederiksberg,0.947,Carlsberg,2.583,37.15824458407122
331," Overgaden Neden Vandet 15, 2, 1414 København K",1214000,1995-07-18, Ejerlejlighed ,6898,6,176,1859,"15, Overgaden Neden Vandet, Christianshavn, København, Københavns Kommune, Region Hovedstaden, 1414, Danmark",55.672338,12.589961,,,1.68024,Nørreport,0.835,Kongens Nytorv,3.517,Carlsberg,2.032,1.1214542256102031
332," Mathildevej 14A, 1. th, 2000 Frederiksberg",460000,1995-07-19, Ejerlejlighed ,6970,2,66,1909,"14A, Mathildevej, Frederiksberg, Frederiksberg Kommune, Region Hovedstaden, 2000, Danmark",55.675761,12.517267,,,0.8963,Peter Bangs Vej,0.76,Fasanvej,1.573,Ålholm,3.539,4.945118370665557
333," Strandboulevarden 35, 2. tv, 2100 København Ø",1461578,1995-07-19, Ejerlejlighed ,6862,7,213,1902,"35, Strandboulevarden, Indre Østerbro, Østerbro, København, Københavns Kommune, Region Hovedstaden, 2100, Danmark",55.70104,12.588805,,,0.48875,Nordhavn,2.247,Nørreport,3.023,Bispebjerg,1.982,1.3794020457108542
334," Christianshavns Voldgade 15, st. th, 1424 København K",565897,1995-07-20, Ejerlejlighed ,8446,3,67,1914,"15, Christianshavns Voldgade, Christianshavn, København, Københavns Kommune, Region Hovedstaden, 1424, Danmark",55.67009300000001,12.590014,,,1.86766,Vesterport,0.812,Islands Brygge,3.462,Carlsberg,2.237,24.84663936970628
335," Egernvej 15, 2000 Frederiksberg",1678910,1995-07-20, Rækkehus ,10902,6,154,1928,"15, Egernvej, Frederiksberg, Frederiksberg Kommune, Region Hovedstaden, 2000, Danmark",55.68991800000001,12.526487,,,0.59684,Fuglebakken,0.94,Fasanvej,1.761,Flintholm,2.764,58.57223894925164
336," Helsingborggade 1, 2. th, 2100 København Ø",728000,1995-07-20, Ejerlejlighed ,6741,4,108,1990,"1, Helsingborggade, Indre Østerbro, Østerbro, København, Københavns Kommune, Region Hovedstaden, 2100, Danmark",55.713145,12.570621000000001,,,0.53887,Svanemøllen,3.32,Nørreport,1.969,Bispebjerg,2.942,0.8658613225333446
337," Betty Nansens Alle 29, 2. tv, 2000 Frederiksberg",1280000,1995-07-21, Ejerlejlighed ,8767,4,146,1976,"29, Betty Nansens Alle, Frederiksberg Kommune, Region Hovedstaden, 2000, Danmark",55.670593999999994,12.498705000000001,,,0.50896,Langgade,1.696,Lindevang,0.378,Ålholm,4.836,32.386695391306105
